{"last_update":"6:33 PM, 14 Nov 2023","total":16,"locations":[{"lat":30.801,"lon":76.226,"detection_":66.0,"radiative_":8.5,"sat":"mod","state":"PB","district":"LUDHIANA"},{"lat":31.051,"lon":76.227,"detection_":63.0,"radiative_":7.0,"sat":"mod","state":"PB","district":"SBS NAGAR"},{"lat":30.74379,"lon":76.22864,"detection_":8.0,"radiative_":3.9,"sat":"npp","state":"PB","district":"LUDHIANA"},{"lat":31.47829,"lon":75.71461,"detection_":8.0,"radiative_":7.5,"sat":"npp","state":"PB","district":"JALANDHAR"},{"lat":30.5078,"lon":76.67233,"detection_":8.0,"radiative_":2.8,"sat":"npp","state":"PB","district":"PATIALA"},{"lat":30.26649,"lon":76.14761,"detection_":8.0,"radiative_":7.0,"sat":"npp","state":"PB","district":"SANGRUR"},{"lat":31.47729,"lon":75.59648,"detection_":8.0,"radiative_":4.1,"sat":"npp","state":"PB","district":"JALANDHAR"},{"lat":30.50367,"lon":76.92992,"detection_":8.0,"radiative_":2.2,"sat":"npp","state":"PB","district":"SAS NAGAR (MOHALI)"},{"lat":30.33258,"lon":76.4885,"detection_":8.0,"radiative_":2.8,"sat":"npp","state":"PB","district":"PATIALA"},{"lat":30.43877,"lon":74.6685,"detection_":8.0,"radiative_":5.1,"sat":"npp","state":"PB","district":"MUKTSAR"},{"lat":30.78497,"lon":76.22681,"detection_":8.0,"radiative_":1.9,"sat":"npp","state":"PB","district":"LUDHIANA"},{"lat":31.0472,"lon":76.21973,"detection_":8.0,"radiative_":1.7,"sat":"npp","state":"PB","district":"SBS NAGAR"},{"lat":31.65886,"lon":75.1674,"detection_":8.0,"radiative_":8.7,"sat":"npp","state":"PB","district":"AMRITSAR"},{"lat":31.06333,"lon":76.21741,"detection_":8.0,"radiative_":4.4,"sat":"npp","state":"PB","district":"SBS NAGAR"},{"lat":30.80953,"lon":76.22739,"detection_":8.0,"radiative_":6.6,"sat":"npp","state":"PB","district":"LUDHIANA"},{"lat":30.82961,"lon":76.26167,"detection_":8.0,"radiative_":1.7,"sat":"npp","state":"PB","district":"LUDHIANA"}],"districts":{"AMRITSAR":1,"BARNALA":0,"BATHINDA":0,"FARIDKOT":0,"FATEHGARH SAHIB":0,"FAZILKA":0,"FIROZPUR":0,"GURDASPUR":0,"HOSHIARPUR":0,"JALANDHAR":2,"KAPURTHALA":0,"LUDHIANA":5,"MANSA":0,"MOGA":0,"MUKTSAR":1,"SBS NAGAR":3,"PATHANKOT":0,"PATIALA":2,"RUPNAGAR":0,"SANGRUR":1,"SAS NAGAR (MOHALI)":1,"TARN TARAN":0}}