{"last_update":"6:35 PM, 14 Nov 2023","total":11,"locations":[{"lat":30.893,"lon":76.121,"detection_":58.0,"radiative_":9.6,"sat":"mod","state":"PB","district":"LUDHIANA"},{"lat":31.835,"lon":75.542,"detection_":39.0,"radiative_":6.5,"sat":"mod","state":"PB","district":"GURDASPUR"},{"lat":31.94,"lon":75.582,"detection_":52.0,"radiative_":7.2,"sat":"mod","state":"PB","district":"HOSHIARPUR"},{"lat":30.964,"lon":74.486,"detection_":71.0,"radiative_":13.9,"sat":"mod","state":"PB","district":"FIROZPUR"},{"lat":30.613,"lon":76.259,"detection_":51.0,"radiative_":8.4,"sat":"mod","state":"PB","district":"FATEHGARH SAHIB"},{"lat":30.89286,"lon":76.11588,"detection_":8.0,"radiative_":3.7,"sat":"npp","state":"PB","district":"LUDHIANA"},{"lat":31.44351,"lon":75.64052,"detection_":8.0,"radiative_":3.5,"sat":"npp","state":"PB","district":"JALANDHAR"},{"lat":31.84522,"lon":75.54964,"detection_":8.0,"radiative_":4.1,"sat":"npp","state":"PB","district":"HOSHIARPUR"},{"lat":31.94922,"lon":75.58423,"detection_":8.0,"radiative_":3.7,"sat":"npp","state":"PB","district":"HOSHIARPUR"},{"lat":30.97096,"lon":74.4845,"detection_":8.0,"radiative_":4.2,"sat":"npp","state":"PB","district":"FIROZPUR"},{"lat":30.62123,"lon":76.25782,"detection_":8.0,"radiative_":5.8,"sat":"npp","state":"PB","district":"FATEHGARH SAHIB"}],"districts":{"AMRITSAR":0,"BARNALA":0,"BATHINDA":0,"FARIDKOT":0,"FATEHGARH SAHIB":2,"FAZILKA":0,"FIROZPUR":2,"GURDASPUR":1,"HOSHIARPUR":3,"JALANDHAR":1,"KAPURTHALA":0,"LUDHIANA":2,"MANSA":0,"MOGA":0,"MUKTSAR":0,"SBS NAGAR":0,"PATHANKOT":0,"PATIALA":0,"RUPNAGAR":0,"SANGRUR":0,"SAS NAGAR (MOHALI)":0,"TARN TARAN":0}}