{"last_update":"6:34 PM, 14 Nov 2023","total":12,"locations":[{"lat":29.566,"lon":75.253,"detection_":64.0,"radiative_":13.0,"sat":"mod","state":"PB","district":"MANSA"},{"lat":30.53,"lon":74.325,"detection_":72.0,"radiative_":19.5,"sat":"mod","state":"PB","district":"FAZILKA"},{"lat":30.175,"lon":74.415,"detection_":71.0,"radiative_":20.7,"sat":"mod","state":"PB","district":"MUKTSAR"},{"lat":30.508,"lon":74.409,"detection_":66.0,"radiative_":14.3,"sat":"mod","state":"PB","district":"MUKTSAR"},{"lat":30.513,"lon":74.403,"detection_":63.0,"radiative_":10.1,"sat":"mod","state":"PB","district":"MUKTSAR"},{"lat":30.532,"lon":74.104,"detection_":74.0,"radiative_":23.4,"sat":"mod","state":"PB","district":"FAZILKA"},{"lat":30.326,"lon":74.296,"detection_":61.0,"radiative_":9.8,"sat":"mod","state":"PB","district":"FAZILKA"},{"lat":30.34423,"lon":74.4484,"detection_":8.0,"radiative_":11.5,"sat":"npp","state":"PB","district":"MUKTSAR"},{"lat":30.34544,"lon":74.45046,"detection_":8.0,"radiative_":9.2,"sat":"npp","state":"PB","district":"MUKTSAR"},{"lat":31.47454,"lon":75.61172,"detection_":8.0,"radiative_":3.4,"sat":"npp","state":"PB","district":"JALANDHAR"},{"lat":31.5263,"lon":75.74651,"detection_":8.0,"radiative_":3.1,"sat":"npp","state":"PB","district":"HOSHIARPUR"},{"lat":29.98104,"lon":76.09372,"detection_":8.0,"radiative_":2.8,"sat":"npp","state":"PB","district":"PATIALA"}],"districts":{"AMRITSAR":0,"BARNALA":0,"BATHINDA":0,"FARIDKOT":0,"FATEHGARH SAHIB":0,"FAZILKA":3,"FIROZPUR":0,"GURDASPUR":0,"HOSHIARPUR":1,"JALANDHAR":1,"KAPURTHALA":0,"LUDHIANA":0,"MANSA":1,"MOGA":0,"MUKTSAR":5,"SBS NAGAR":0,"PATHANKOT":0,"PATIALA":1,"RUPNAGAR":0,"SANGRUR":0,"SAS NAGAR (MOHALI)":0,"TARN TARAN":0}}