{"last_update":"6:34 PM, 14 Nov 2023","total":12,"locations":[{"lat":31.99699,"lon":75.53663,"detection_":8.0,"radiative_":3.3,"sat":"npp","state":"PB","district":"GURDASPUR"},{"lat":31.8326,"lon":75.51511,"detection_":8.0,"radiative_":1.9,"sat":"npp","state":"PB","district":"GURDASPUR"},{"lat":31.40484,"lon":75.70617,"detection_":8.0,"radiative_":2.9,"sat":"npp","state":"PB","district":"JALANDHAR"},{"lat":30.83249,"lon":76.61891,"detection_":8.0,"radiative_":2.9,"sat":"npp","state":"PB","district":"SAS NAGAR (MOHALI)"},{"lat":30.32643,"lon":74.43424,"detection_":8.0,"radiative_":2.7,"sat":"npp","state":"PB","district":"MUKTSAR"},{"lat":31.8896,"lon":75.33079,"detection_":8.0,"radiative_":5.1,"sat":"npp","state":"PB","district":"GURDASPUR"},{"lat":31.88989,"lon":75.33633,"detection_":8.0,"radiative_":5.1,"sat":"npp","state":"PB","district":"GURDASPUR"},{"lat":30.79393,"lon":76.04043,"detection_":9.0,"radiative_":7.6,"sat":"npp","state":"PB","district":"LUDHIANA"},{"lat":30.78328,"lon":75.83702,"detection_":8.0,"radiative_":3.7,"sat":"npp","state":"PB","district":"LUDHIANA"},{"lat":30.58698,"lon":74.41107,"detection_":8.0,"radiative_":3.0,"sat":"npp","state":"PB","district":"MUKTSAR"},{"lat":30.81597,"lon":76.29449,"detection_":8.0,"radiative_":4.4,"sat":"npp","state":"PB","district":"FATEHGARH SAHIB"},{"lat":31.20534,"lon":75.03156,"detection_":8.0,"radiative_":2.8,"sat":"npp","state":"PB","district":"TARN TARAN"}],"districts":{"AMRITSAR":0,"BARNALA":0,"BATHINDA":0,"FARIDKOT":0,"FATEHGARH SAHIB":1,"FAZILKA":0,"FIROZPUR":0,"GURDASPUR":4,"HOSHIARPUR":0,"JALANDHAR":1,"KAPURTHALA":0,"LUDHIANA":2,"MANSA":0,"MOGA":0,"MUKTSAR":2,"SBS NAGAR":0,"PATHANKOT":0,"PATIALA":0,"RUPNAGAR":0,"SANGRUR":0,"SAS NAGAR (MOHALI)":1,"TARN TARAN":1}}