{"last_update":"6:38 PM, 14 Nov 2023","total":9,"locations":[{"lat":31.50143,"lon":75.36479,"detection_":8.0,"radiative_":9.7,"sat":"npp","state":"PB","district":"KAPURTHALA"},{"lat":31.21921,"lon":75.68776,"detection_":8.0,"radiative_":6.0,"sat":"npp","state":"PB","district":"JALANDHAR"},{"lat":31.19388,"lon":75.69547,"detection_":8.0,"radiative_":4.0,"sat":"npp","state":"PB","district":"KAPURTHALA"},{"lat":30.62458,"lon":76.12955,"detection_":8.0,"radiative_":13.3,"sat":"npp","state":"PB","district":"FATEHGARH SAHIB"},{"lat":31.75045,"lon":75.04346,"detection_":8.0,"radiative_":9.1,"sat":"npp","state":"PB","district":"AMRITSAR"},{"lat":30.61884,"lon":76.13004,"detection_":9.0,"radiative_":13.3,"sat":"npp","state":"PB","district":"FATEHGARH SAHIB"},{"lat":30.71914,"lon":75.62431,"detection_":8.0,"radiative_":3.6,"sat":"npp","state":"PB","district":"LUDHIANA"},{"lat":31.32071,"lon":74.70732,"detection_":8.0,"radiative_":3.5,"sat":"npp","state":"PB","district":"TARN TARAN"},{"lat":30.59739,"lon":76.34332,"detection_":8.0,"radiative_":2.9,"sat":"npp","state":"PB","district":"FATEHGARH SAHIB"}],"districts":{"AMRITSAR":1,"BARNALA":0,"BATHINDA":0,"FARIDKOT":0,"FATEHGARH SAHIB":3,"FAZILKA":0,"FIROZPUR":0,"GURDASPUR":0,"HOSHIARPUR":0,"JALANDHAR":1,"KAPURTHALA":2,"LUDHIANA":1,"MANSA":0,"MOGA":0,"MUKTSAR":0,"SBS NAGAR":0,"PATHANKOT":0,"PATIALA":0,"RUPNAGAR":0,"SANGRUR":0,"SAS NAGAR (MOHALI)":0,"TARN TARAN":1}}