{"last_update":"6:38 PM, 14 Nov 2023","total":15,"locations":[{"lat":30.917,"lon":76.283,"detection_":60.0,"radiative_":14.6,"sat":"mod","state":"PB","district":"LUDHIANA"},{"lat":30.503,"lon":74.955,"detection_":41.0,"radiative_":11.2,"sat":"mod","state":"PB","district":"FARIDKOT"},{"lat":32.044,"lon":74.92,"detection_":86.0,"radiative_":45.0,"sat":"mod","state":"PB","district":"GURDASPUR"},{"lat":31.129,"lon":75.999,"detection_":71.0,"radiative_":14.2,"sat":"mod","state":"PB","district":"SBS NAGAR"},{"lat":31.0509,"lon":76.57988,"detection_":8.0,"radiative_":2.7,"sat":"npp","state":"PB","district":"RUPNAGAR"},{"lat":30.34597,"lon":76.72761,"detection_":8.0,"radiative_":4.3,"sat":"npp","state":"PB","district":"PATIALA"},{"lat":30.50888,"lon":76.72602,"detection_":8.0,"radiative_":3.8,"sat":"npp","state":"PB","district":"PATIALA"},{"lat":31.61805,"lon":75.24529,"detection_":8.0,"radiative_":8.5,"sat":"npp","state":"PB","district":"AMRITSAR"},{"lat":30.93244,"lon":76.2968,"detection_":9.0,"radiative_":11.8,"sat":"npp","state":"PB","district":"LUDHIANA"},{"lat":30.96325,"lon":76.2741,"detection_":8.0,"radiative_":6.4,"sat":"npp","state":"PB","district":"LUDHIANA"},{"lat":30.93796,"lon":76.35812,"detection_":8.0,"radiative_":2.7,"sat":"npp","state":"PB","district":"RUPNAGAR"},{"lat":31.40993,"lon":75.21315,"detection_":8.0,"radiative_":11.2,"sat":"npp","state":"PB","district":"KAPURTHALA"},{"lat":31.2515,"lon":75.73415,"detection_":8.0,"radiative_":2.4,"sat":"npp","state":"PB","district":"KAPURTHALA"},{"lat":31.6895,"lon":75.44661,"detection_":8.0,"radiative_":4.0,"sat":"npp","state":"PB","district":"GURDASPUR"},{"lat":31.88597,"lon":75.51591,"detection_":8.0,"radiative_":14.3,"sat":"npp","state":"PB","district":"GURDASPUR"}],"districts":{"AMRITSAR":1,"BARNALA":0,"BATHINDA":0,"FARIDKOT":1,"FATEHGARH SAHIB":0,"FAZILKA":0,"FIROZPUR":0,"GURDASPUR":3,"HOSHIARPUR":0,"JALANDHAR":0,"KAPURTHALA":2,"LUDHIANA":3,"MANSA":0,"MOGA":0,"MUKTSAR":0,"SBS NAGAR":1,"PATHANKOT":0,"PATIALA":2,"RUPNAGAR":2,"SANGRUR":0,"SAS NAGAR (MOHALI)":0,"TARN TARAN":0}}