{"last_update":"6:38 PM, 14 Nov 2023","total":6,"locations":[{"lat":32.038,"lon":74.886,"detection_":51.0,"radiative_":23.3,"sat":"mod","state":"PB","district":"AMRITSAR"},{"lat":31.83271,"lon":75.17945,"detection_":8.0,"radiative_":8.1,"sat":"npp","state":"PB","district":"GURDASPUR"},{"lat":31.14662,"lon":75.11092,"detection_":8.0,"radiative_":17.2,"sat":"npp","state":"PB","district":"JALANDHAR"},{"lat":30.99183,"lon":76.34409,"detection_":8.0,"radiative_":2.0,"sat":"npp","state":"PB","district":"SBS NAGAR"},{"lat":31.06646,"lon":75.69983,"detection_":8.0,"radiative_":13.7,"sat":"npp","state":"PB","district":"JALANDHAR"},{"lat":30.17658,"lon":74.7928,"detection_":8.0,"radiative_":6.0,"sat":"npp","state":"PB","district":"BATHINDA"}],"districts":{"AMRITSAR":1,"BARNALA":0,"BATHINDA":1,"FARIDKOT":0,"FATEHGARH SAHIB":0,"FAZILKA":0,"FIROZPUR":0,"GURDASPUR":1,"HOSHIARPUR":0,"JALANDHAR":2,"KAPURTHALA":0,"LUDHIANA":0,"MANSA":0,"MOGA":0,"MUKTSAR":0,"SBS NAGAR":1,"PATHANKOT":0,"PATIALA":0,"RUPNAGAR":0,"SANGRUR":0,"SAS NAGAR (MOHALI)":0,"TARN TARAN":0}}