{"last_update":"6:36 PM, 14 Nov 2023","total":13,"locations":[{"lat":31.135,"lon":75.726,"detection_":40.0,"radiative_":5.2,"sat":"mod","state":"PB","district":"JALANDHAR"},{"lat":31.137,"lon":75.713,"detection_":38.0,"radiative_":4.9,"sat":"mod","state":"PB","district":"JALANDHAR"},{"lat":31.457,"lon":75.585,"detection_":65.0,"radiative_":6.6,"sat":"mod","state":"PB","district":"JALANDHAR"},{"lat":30.02984,"lon":74.2335,"detection_":8.0,"radiative_":1.2,"sat":"npp","state":"PB","district":"FAZILKA"},{"lat":31.08056,"lon":75.7011,"detection_":8.0,"radiative_":9.3,"sat":"npp","state":"PB","district":"JALANDHAR"},{"lat":31.5722,"lon":75.78219,"detection_":8.0,"radiative_":3.3,"sat":"npp","state":"PB","district":"HOSHIARPUR"},{"lat":30.97294,"lon":74.49152,"detection_":8.0,"radiative_":3.3,"sat":"npp","state":"PB","district":"FIROZPUR"},{"lat":31.97392,"lon":75.58396,"detection_":8.0,"radiative_":2.5,"sat":"npp","state":"PB","district":"HOSHIARPUR"},{"lat":31.8743,"lon":74.68312,"detection_":8.0,"radiative_":2.9,"sat":"npp","state":"PB","district":"AMRITSAR"},{"lat":31.6558,"lon":75.46906,"detection_":8.0,"radiative_":1.6,"sat":"npp","state":"PB","district":"GURDASPUR"},{"lat":31.53216,"lon":75.54668,"detection_":8.0,"radiative_":8.0,"sat":"npp","state":"PB","district":"JALANDHAR"},{"lat":31.42222,"lon":75.23652,"detection_":8.0,"radiative_":5.3,"sat":"npp","state":"PB","district":"KAPURTHALA"},{"lat":31.41868,"lon":75.23713,"detection_":8.0,"radiative_":4.5,"sat":"npp","state":"PB","district":"KAPURTHALA"}],"districts":{"AMRITSAR":1,"BARNALA":0,"BATHINDA":0,"FARIDKOT":0,"FATEHGARH SAHIB":0,"FAZILKA":1,"FIROZPUR":1,"GURDASPUR":1,"HOSHIARPUR":2,"JALANDHAR":5,"KAPURTHALA":2,"LUDHIANA":0,"MANSA":0,"MOGA":0,"MUKTSAR":0,"SBS NAGAR":0,"PATHANKOT":0,"PATIALA":0,"RUPNAGAR":0,"SANGRUR":0,"SAS NAGAR (MOHALI)":0,"TARN TARAN":0}}