{"last_update":"6:36 PM, 14 Nov 2023","total":12,"locations":[{"lat":31.36955,"lon":75.78084,"detection_":8.0,"radiative_":5.8,"sat":"npp","state":"PB","district":"JALANDHAR"},{"lat":31.37163,"lon":75.77901,"detection_":8.0,"radiative_":4.9,"sat":"npp","state":"PB","district":"JALANDHAR"},{"lat":32.02455,"lon":74.92265,"detection_":8.0,"radiative_":3.8,"sat":"npp","state":"PB","district":"AMRITSAR"},{"lat":30.7896,"lon":76.15906,"detection_":8.0,"radiative_":2.5,"sat":"npp","state":"PB","district":"LUDHIANA"},{"lat":31.04505,"lon":75.96505,"detection_":8.0,"radiative_":4.5,"sat":"npp","state":"PB","district":"SBS NAGAR"},{"lat":31.03678,"lon":76.0582,"detection_":8.0,"radiative_":1.6,"sat":"npp","state":"PB","district":"SBS NAGAR"},{"lat":31.45211,"lon":75.56744,"detection_":8.0,"radiative_":1.2,"sat":"npp","state":"PB","district":"JALANDHAR"},{"lat":31.72642,"lon":75.50593,"detection_":8.0,"radiative_":2.3,"sat":"npp","state":"PB","district":"GURDASPUR"},{"lat":30.35149,"lon":76.20963,"detection_":8.0,"radiative_":3.0,"sat":"npp","state":"PB","district":"PATIALA"},{"lat":30.35095,"lon":76.21163,"detection_":8.0,"radiative_":1.9,"sat":"npp","state":"PB","district":"PATIALA"},{"lat":30.75296,"lon":76.28534,"detection_":8.0,"radiative_":3.9,"sat":"npp","state":"PB","district":"LUDHIANA"},{"lat":31.04532,"lon":76.1899,"detection_":8.0,"radiative_":2.3,"sat":"npp","state":"PB","district":"SBS NAGAR"}],"districts":{"AMRITSAR":1,"BARNALA":0,"BATHINDA":0,"FARIDKOT":0,"FATEHGARH SAHIB":0,"FAZILKA":0,"FIROZPUR":0,"GURDASPUR":1,"HOSHIARPUR":0,"JALANDHAR":3,"KAPURTHALA":0,"LUDHIANA":2,"MANSA":0,"MOGA":0,"MUKTSAR":0,"SBS NAGAR":3,"PATHANKOT":0,"PATIALA":2,"RUPNAGAR":0,"SANGRUR":0,"SAS NAGAR (MOHALI)":0,"TARN TARAN":0}}