{"last_update":"6:44 PM, 14 Nov 2023","total":13,"locations":[{"lat":31.27689,"lon":76.38566,"detection_":8.0,"radiative_":2.8,"sat":"npp","state":"PB","district":"RUPNAGAR"},{"lat":32.14555,"lon":75.30869,"detection_":8.0,"radiative_":2.8,"sat":"npp","state":"PB","district":"GURDASPUR"},{"lat":30.51351,"lon":76.28634,"detection_":8.0,"radiative_":4.1,"sat":"npp","state":"PB","district":"PATIALA"},{"lat":30.88284,"lon":75.99364,"detection_":8.0,"radiative_":0.5,"sat":"npp","state":"PB","district":"LUDHIANA"},{"lat":31.99518,"lon":75.71006,"detection_":8.0,"radiative_":3.0,"sat":"npp","state":"PB","district":"HOSHIARPUR"},{"lat":31.97706,"lon":75.68312,"detection_":8.0,"radiative_":3.8,"sat":"npp","state":"PB","district":"HOSHIARPUR"},{"lat":30.58425,"lon":75.86572,"detection_":8.0,"radiative_":3.4,"sat":"npp","state":"PB","district":"SANGRUR"},{"lat":31.82076,"lon":75.40733,"detection_":8.0,"radiative_":2.3,"sat":"npp","state":"PB","district":"GURDASPUR"},{"lat":31.82135,"lon":75.41209,"detection_":8.0,"radiative_":3.7,"sat":"npp","state":"PB","district":"GURDASPUR"},{"lat":31.68117,"lon":75.77689,"detection_":8.0,"radiative_":2.9,"sat":"npp","state":"PB","district":"HOSHIARPUR"},{"lat":30.39157,"lon":76.90385,"detection_":8.0,"radiative_":2.9,"sat":"npp","state":"PB","district":"SAS NAGAR (MOHALI)"},{"lat":31.86814,"lon":74.71535,"detection_":8.0,"radiative_":10.0,"sat":"npp","state":"PB","district":"AMRITSAR"},{"lat":31.53567,"lon":74.69826,"detection_":8.0,"radiative_":4.4,"sat":"npp","state":"PB","district":"TARN TARAN"}],"districts":{"AMRITSAR":1,"BARNALA":0,"BATHINDA":0,"FARIDKOT":0,"FATEHGARH SAHIB":0,"FAZILKA":0,"FIROZPUR":0,"GURDASPUR":3,"HOSHIARPUR":3,"JALANDHAR":0,"KAPURTHALA":0,"LUDHIANA":1,"MANSA":0,"MOGA":0,"MUKTSAR":0,"SBS NAGAR":0,"PATHANKOT":0,"PATIALA":1,"RUPNAGAR":1,"SANGRUR":1,"SAS NAGAR (MOHALI)":1,"TARN TARAN":1}}