{"last_update":"6:45 PM, 14 Nov 2023","total":6,"locations":[{"lat":31.894,"lon":75.549,"detection_":71.0,"radiative_":10.7,"sat":"mod","state":"PB","district":"GURDASPUR"},{"lat":30.88142,"lon":75.9935,"detection_":8.0,"radiative_":0.6,"sat":"npp","state":"PB","district":"LUDHIANA"},{"lat":31.49677,"lon":75.71213,"detection_":8.0,"radiative_":4.4,"sat":"npp","state":"PB","district":"JALANDHAR"},{"lat":31.0881,"lon":75.76834,"detection_":8.0,"radiative_":3.6,"sat":"npp","state":"PB","district":"JALANDHAR"},{"lat":31.19038,"lon":76.09933,"detection_":8.0,"radiative_":2.4,"sat":"npp","state":"PB","district":"HOSHIARPUR"},{"lat":30.81498,"lon":76.34867,"detection_":8.0,"radiative_":4.6,"sat":"npp","state":"PB","district":"FATEHGARH SAHIB"}],"districts":{"AMRITSAR":0,"BARNALA":0,"BATHINDA":0,"FARIDKOT":0,"FATEHGARH SAHIB":1,"FAZILKA":0,"FIROZPUR":0,"GURDASPUR":1,"HOSHIARPUR":1,"JALANDHAR":2,"KAPURTHALA":0,"LUDHIANA":1,"MANSA":0,"MOGA":0,"MUKTSAR":0,"SBS NAGAR":0,"PATHANKOT":0,"PATIALA":0,"RUPNAGAR":0,"SANGRUR":0,"SAS NAGAR (MOHALI)":0,"TARN TARAN":0}}