{"last_update":"5:11 AM, 07 Dec 2023","total":6,"locations":[{"lat":29.803,"lon":75.52,"detection_":57.0,"radiative_":4.9,"sat":"mod","state":"PB","district":"MANSA"},{"lat":31.888,"lon":75.345,"detection_":58.0,"radiative_":4.9,"sat":"mod","state":"PB","district":"GURDASPUR"},{"lat":30.02,"lon":75.097,"detection_":59.0,"radiative_":6.4,"sat":"mod","state":"PB","district":"BATHINDA"},{"lat":31.05264,"lon":75.59441,"detection_":8.0,"radiative_":2.2,"sat":"npp","state":"PB","district":"JALANDHAR"},{"lat":31.05039,"lon":75.59404,"detection_":8.0,"radiative_":2.6,"sat":"npp","state":"PB","district":"JALANDHAR"},{"lat":30.5659,"lon":76.44141,"detection_":8.0,"radiative_":8.3,"sat":"npp","state":"PB","district":"FATEHGARH SAHIB"}],"districts":{"AMRITSAR":0,"BARNALA":0,"BATHINDA":1,"FARIDKOT":0,"FATEHGARH SAHIB":1,"FAZILKA":0,"FIROZPUR":0,"GURDASPUR":1,"HOSHIARPUR":0,"JALANDHAR":2,"KAPURTHALA":0,"LUDHIANA":0,"MANSA":1,"MOGA":0,"MUKTSAR":0,"SBS NAGAR":0,"PATHANKOT":0,"PATIALA":0,"RUPNAGAR":0,"SANGRUR":0,"SAS NAGAR (MOHALI)":0,"TARN TARAN":0}}