{"last_update":"6:45 PM, 14 Nov 2023","total":21,"locations":[{"lat":30.9199,"lon":74.89014,"detection_":8.0,"radiative_":5.1,"sat":"npp","state":"PB","district":"FIROZPUR"},{"lat":30.28691,"lon":75.28445,"detection_":8.0,"radiative_":2.0,"sat":"npp","state":"PB","district":"BATHINDA"},{"lat":31.20564,"lon":74.89687,"detection_":8.0,"radiative_":1.9,"sat":"npp","state":"PB","district":"TARN TARAN"},{"lat":30.35528,"lon":75.92228,"detection_":8.0,"radiative_":4.7,"sat":"npp","state":"PB","district":"SANGRUR"},{"lat":30.22374,"lon":75.53237,"detection_":8.0,"radiative_":3.6,"sat":"npp","state":"PB","district":"BARNALA"},{"lat":30.28128,"lon":75.25757,"detection_":8.0,"radiative_":3.8,"sat":"npp","state":"PB","district":"BATHINDA"},{"lat":30.32668,"lon":75.99047,"detection_":8.0,"radiative_":4.6,"sat":"npp","state":"PB","district":"SANGRUR"},{"lat":30.58681,"lon":74.56335,"detection_":8.0,"radiative_":6.6,"sat":"npp","state":"PB","district":"MUKTSAR"},{"lat":30.39829,"lon":76.05311,"detection_":8.0,"radiative_":2.9,"sat":"npp","state":"PB","district":"PATIALA"},{"lat":30.27018,"lon":75.03431,"detection_":8.0,"radiative_":7.8,"sat":"npp","state":"PB","district":"BATHINDA"},{"lat":31.62503,"lon":75.67999,"detection_":8.0,"radiative_":1.8,"sat":"npp","state":"PB","district":"HOSHIARPUR"},{"lat":31.51528,"lon":75.42457,"detection_":8.0,"radiative_":8.9,"sat":"npp","state":"PB","district":"KAPURTHALA"},{"lat":31.51307,"lon":75.42138,"detection_":8.0,"radiative_":3.9,"sat":"npp","state":"PB","district":"KAPURTHALA"},{"lat":31.51443,"lon":75.42034,"detection_":8.0,"radiative_":4.0,"sat":"npp","state":"PB","district":"KAPURTHALA"},{"lat":31.51394,"lon":75.4256,"detection_":8.0,"radiative_":4.5,"sat":"npp","state":"PB","district":"KAPURTHALA"},{"lat":31.38902,"lon":75.47086,"detection_":8.0,"radiative_":3.6,"sat":"npp","state":"PB","district":"KAPURTHALA"},{"lat":31.41817,"lon":75.38869,"detection_":8.0,"radiative_":7.0,"sat":"npp","state":"PB","district":"KAPURTHALA"},{"lat":31.4402,"lon":75.64181,"detection_":8.0,"radiative_":2.1,"sat":"npp","state":"PB","district":"JALANDHAR"},{"lat":31.83525,"lon":75.59273,"detection_":8.0,"radiative_":2.7,"sat":"npp","state":"PB","district":"HOSHIARPUR"},{"lat":30.58785,"lon":74.5682,"detection_":8.0,"radiative_":6.6,"sat":"npp","state":"PB","district":"MUKTSAR"},{"lat":31.55753,"lon":75.15538,"detection_":8.0,"radiative_":4.1,"sat":"npp","state":"PB","district":"AMRITSAR"}],"districts":{"AMRITSAR":1,"BARNALA":1,"BATHINDA":3,"FARIDKOT":0,"FATEHGARH SAHIB":0,"FAZILKA":0,"FIROZPUR":1,"GURDASPUR":0,"HOSHIARPUR":2,"JALANDHAR":1,"KAPURTHALA":6,"LUDHIANA":0,"MANSA":0,"MOGA":0,"MUKTSAR":2,"SBS NAGAR":0,"PATHANKOT":0,"PATIALA":1,"RUPNAGAR":0,"SANGRUR":2,"SAS NAGAR (MOHALI)":0,"TARN TARAN":1}}