{"last_update":"3:11 PM, 20 Dec 2023","total":12,"locations":[{"lat":30.17865,"lon":74.62804,"detection_":8.0,"radiative_":3.6,"sat":"npp","state":"PB","district":"MUKTSAR"},{"lat":29.94731,"lon":74.46751,"detection_":8.0,"radiative_":3.7,"sat":"npp","state":"PB","district":"MUKTSAR"},{"lat":31.12496,"lon":75.52631,"detection_":8.0,"radiative_":3.8,"sat":"npp","state":"PB","district":"JALANDHAR"},{"lat":30.60836,"lon":76.42984,"detection_":8.0,"radiative_":1.9,"sat":"npp","state":"PB","district":"FATEHGARH SAHIB"},{"lat":31.97675,"lon":75.38035,"detection_":8.0,"radiative_":5.0,"sat":"npp","state":"PB","district":"GURDASPUR"},{"lat":31.22954,"lon":75.99665,"detection_":8.0,"radiative_":1.8,"sat":"npp","state":"PB","district":"SBS NAGAR"},{"lat":32.0481,"lon":75.45773,"detection_":8.0,"radiative_":2.7,"sat":"npp","state":"PB","district":"GURDASPUR"},{"lat":32.14936,"lon":75.52493,"detection_":8.0,"radiative_":2.2,"sat":"npp","state":"PB","district":"PATHANKOT"},{"lat":31.67206,"lon":75.42933,"detection_":8.0,"radiative_":4.3,"sat":"npp","state":"PB","district":"GURDASPUR"},{"lat":31.67366,"lon":75.42574,"detection_":8.0,"radiative_":4.3,"sat":"npp","state":"PB","district":"GURDASPUR"},{"lat":31.67312,"lon":75.31709,"detection_":8.0,"radiative_":5.8,"sat":"npp","state":"PB","district":"GURDASPUR"},{"lat":31.33114,"lon":75.74382,"detection_":8.0,"radiative_":1.8,"sat":"npp","state":"PB","district":"JALANDHAR"}],"districts":{"AMRITSAR":0,"BARNALA":0,"BATHINDA":0,"FARIDKOT":0,"FATEHGARH SAHIB":1,"FAZILKA":0,"FIROZPUR":0,"GURDASPUR":5,"HOSHIARPUR":0,"JALANDHAR":2,"KAPURTHALA":0,"LUDHIANA":0,"MANSA":0,"MOGA":0,"MUKTSAR":2,"SBS NAGAR":1,"PATHANKOT":1,"PATIALA":0,"RUPNAGAR":0,"SANGRUR":0,"SAS NAGAR (MOHALI)":0,"TARN TARAN":0}}