{"last_update":"6:46 PM, 14 Nov 2023","total":10,"locations":[{"lat":30.22137,"lon":76.60386,"detection_":8.0,"radiative_":8.1,"sat":"npp","state":"PB","district":"PATIALA"},{"lat":31.78824,"lon":75.82261,"detection_":8.0,"radiative_":6.2,"sat":"npp","state":"PB","district":"HOSHIARPUR"},{"lat":31.00888,"lon":75.9091,"detection_":8.0,"radiative_":2.0,"sat":"npp","state":"PB","district":"LUDHIANA"},{"lat":31.86977,"lon":75.56113,"detection_":8.0,"radiative_":6.5,"sat":"npp","state":"PB","district":"GURDASPUR"},{"lat":32.04782,"lon":74.93332,"detection_":8.0,"radiative_":6.4,"sat":"npp","state":"PB","district":"GURDASPUR"},{"lat":32.04931,"lon":74.94911,"detection_":8.0,"radiative_":8.0,"sat":"npp","state":"PB","district":"GURDASPUR"},{"lat":32.04882,"lon":74.94386,"detection_":8.0,"radiative_":8.0,"sat":"npp","state":"PB","district":"GURDASPUR"},{"lat":30.21649,"lon":76.6044,"detection_":8.0,"radiative_":8.1,"sat":"npp","state":"PB","district":"PATIALA"},{"lat":31.97715,"lon":74.85748,"detection_":8.0,"radiative_":3.5,"sat":"npp","state":"PB","district":"AMRITSAR"},{"lat":31.50396,"lon":74.58118,"detection_":8.0,"radiative_":5.9,"sat":"npp","state":"PB","district":null}],"districts":{"AMRITSAR":1,"BARNALA":0,"BATHINDA":0,"FARIDKOT":0,"FATEHGARH SAHIB":0,"FAZILKA":0,"FIROZPUR":0,"GURDASPUR":4,"HOSHIARPUR":1,"JALANDHAR":0,"KAPURTHALA":0,"LUDHIANA":1,"MANSA":0,"MOGA":0,"MUKTSAR":0,"SBS NAGAR":0,"PATHANKOT":0,"PATIALA":2,"RUPNAGAR":0,"SANGRUR":0,"SAS NAGAR (MOHALI)":0,"TARN TARAN":0}}