{"last_update":"6:45 PM, 14 Nov 2023","total":13,"locations":[{"lat":30.103,"lon":76.149,"detection_":37.0,"radiative_":6.9,"sat":"mod","state":"PB","district":"PATIALA"},{"lat":30.315,"lon":76.212,"detection_":73.0,"radiative_":12.3,"sat":"mod","state":"PB","district":"PATIALA"},{"lat":30.604,"lon":75.671,"detection_":68.0,"radiative_":8.3,"sat":"mod","state":"PB","district":"LUDHIANA"},{"lat":31.278,"lon":75.128,"detection_":50.0,"radiative_":6.7,"sat":"mod","state":"PB","district":"KAPURTHALA"},{"lat":30.583,"lon":75.02,"detection_":73.0,"radiative_":10.8,"sat":"mod","state":"PB","district":"MOGA"},{"lat":30.582,"lon":75.031,"detection_":70.0,"radiative_":8.2,"sat":"mod","state":"PB","district":"MOGA"},{"lat":30.398,"lon":74.823,"detection_":63.0,"radiative_":7.2,"sat":"mod","state":"PB","district":"FARIDKOT"},{"lat":30.419,"lon":75.349,"detection_":64.0,"radiative_":7.1,"sat":"mod","state":"PB","district":"BARNALA"},{"lat":30.881,"lon":74.928,"detection_":68.0,"radiative_":8.6,"sat":"mod","state":"PB","district":"FIROZPUR"},{"lat":30.815,"lon":74.943,"detection_":77.0,"radiative_":11.1,"sat":"mod","state":"PB","district":"MOGA"},{"lat":30.212,"lon":75.448,"detection_":67.0,"radiative_":13.0,"sat":"mod","state":"PB","district":"BARNALA"},{"lat":30.71715,"lon":76.62943,"detection_":8.0,"radiative_":0.3,"sat":"npp","state":"PB","district":"SAS NAGAR (MOHALI)"},{"lat":30.39498,"lon":75.25805,"detection_":8.0,"radiative_":1.7,"sat":"npp","state":"PB","district":"BATHINDA"}],"districts":{"AMRITSAR":0,"BARNALA":2,"BATHINDA":1,"FARIDKOT":1,"FATEHGARH SAHIB":0,"FAZILKA":0,"FIROZPUR":1,"GURDASPUR":0,"HOSHIARPUR":0,"JALANDHAR":0,"KAPURTHALA":1,"LUDHIANA":1,"MANSA":0,"MOGA":3,"MUKTSAR":0,"SBS NAGAR":0,"PATHANKOT":0,"PATIALA":2,"RUPNAGAR":0,"SANGRUR":0,"SAS NAGAR (MOHALI)":1,"TARN TARAN":0}}