{"last_update":"7:11 PM, 11 Dec 2023","total":10,"locations":[{"lat":31.029,"lon":76.191,"detection_":65.0,"radiative_":6.0,"sat":"mod","state":"PB","district":"SBS NAGAR"},{"lat":30.62861,"lon":76.59452,"detection_":8.0,"radiative_":4.3,"sat":"npp","state":"PB","district":"FATEHGARH SAHIB"},{"lat":32.022,"lon":75.59005,"detection_":8.0,"radiative_":3.9,"sat":"npp","state":"PB","district":"HOSHIARPUR"},{"lat":32.02172,"lon":75.58644,"detection_":8.0,"radiative_":3.0,"sat":"npp","state":"PB","district":"HOSHIARPUR"},{"lat":30.84241,"lon":76.39674,"detection_":8.0,"radiative_":1.9,"sat":"npp","state":"PB","district":"FATEHGARH SAHIB"},{"lat":31.70399,"lon":75.43343,"detection_":8.0,"radiative_":2.5,"sat":"npp","state":"PB","district":"GURDASPUR"},{"lat":30.79034,"lon":75.82823,"detection_":8.0,"radiative_":2.4,"sat":"npp","state":"PB","district":"LUDHIANA"},{"lat":31.07154,"lon":75.44807,"detection_":8.0,"radiative_":1.5,"sat":"npp","state":"PB","district":"JALANDHAR"},{"lat":31.07126,"lon":75.44464,"detection_":8.0,"radiative_":1.5,"sat":"npp","state":"PB","district":"JALANDHAR"},{"lat":30.84502,"lon":76.39467,"detection_":8.0,"radiative_":2.3,"sat":"npp","state":"PB","district":"FATEHGARH SAHIB"}],"districts":{"AMRITSAR":0,"BARNALA":0,"BATHINDA":0,"FARIDKOT":0,"FATEHGARH SAHIB":3,"FAZILKA":0,"FIROZPUR":0,"GURDASPUR":1,"HOSHIARPUR":2,"JALANDHAR":2,"KAPURTHALA":0,"LUDHIANA":1,"MANSA":0,"MOGA":0,"MUKTSAR":0,"SBS NAGAR":1,"PATHANKOT":0,"PATIALA":0,"RUPNAGAR":0,"SANGRUR":0,"SAS NAGAR (MOHALI)":0,"TARN TARAN":0}}