{"last_update":"6:25 PM, 07 Dec 2023","total":17,"locations":[{"lat":30.29,"lon":74.105,"detection_":74.0,"radiative_":35.0,"sat":"mod","state":"PB","district":"FAZILKA"},{"lat":30.291,"lon":74.094,"detection_":65.0,"radiative_":13.2,"sat":"mod","state":"PB","district":"FAZILKA"},{"lat":30.42448,"lon":74.32022,"detection_":8.0,"radiative_":5.2,"sat":"npp","state":"PB","district":"MUKTSAR"},{"lat":30.37417,"lon":75.91158,"detection_":8.0,"radiative_":3.0,"sat":"npp","state":"PB","district":"SANGRUR"},{"lat":31.5118,"lon":75.67185,"detection_":8.0,"radiative_":3.4,"sat":"npp","state":"PB","district":"JALANDHAR"},{"lat":31.30842,"lon":75.76627,"detection_":8.0,"radiative_":1.9,"sat":"npp","state":"PB","district":"KAPURTHALA"},{"lat":31.21732,"lon":76.10831,"detection_":8.0,"radiative_":2.7,"sat":"npp","state":"PB","district":"HOSHIARPUR"},{"lat":30.28999,"lon":74.10581,"detection_":8.0,"radiative_":19.1,"sat":"npp","state":"PB","district":"FAZILKA"},{"lat":30.29024,"lon":74.10348,"detection_":8.0,"radiative_":35.2,"sat":"npp","state":"PB","district":"FAZILKA"},{"lat":29.84537,"lon":76.03811,"detection_":8.0,"radiative_":3.2,"sat":"npp","state":"PB","district":"SANGRUR"},{"lat":32.0021,"lon":75.26013,"detection_":8.0,"radiative_":5.0,"sat":"npp","state":"PB","district":"GURDASPUR"},{"lat":30.05242,"lon":75.18333,"detection_":8.0,"radiative_":6.3,"sat":"npp","state":"PB","district":"BATHINDA"},{"lat":31.18522,"lon":75.23361,"detection_":8.0,"radiative_":2.3,"sat":"npp","state":"PB","district":"KAPURTHALA"},{"lat":31.18581,"lon":75.23823,"detection_":8.0,"radiative_":2.3,"sat":"npp","state":"PB","district":"KAPURTHALA"},{"lat":30.10356,"lon":74.84687,"detection_":8.0,"radiative_":1.8,"sat":"npp","state":"PB","district":"BATHINDA"},{"lat":30.95128,"lon":74.69834,"detection_":8.0,"radiative_":3.5,"sat":"npp","state":"PB","district":"FIROZPUR"},{"lat":30.1494,"lon":75.09978,"detection_":8.0,"radiative_":6.7,"sat":"npp","state":"PB","district":"BATHINDA"}],"districts":{"AMRITSAR":0,"BARNALA":0,"BATHINDA":3,"FARIDKOT":0,"FATEHGARH SAHIB":0,"FAZILKA":4,"FIROZPUR":1,"GURDASPUR":1,"HOSHIARPUR":1,"JALANDHAR":1,"KAPURTHALA":3,"LUDHIANA":0,"MANSA":0,"MOGA":0,"MUKTSAR":1,"SBS NAGAR":0,"PATHANKOT":0,"PATIALA":0,"RUPNAGAR":0,"SANGRUR":2,"SAS NAGAR (MOHALI)":0,"TARN TARAN":0}}