{"last_update":"9:11 PM, 04 Dec 2023","total":9,"locations":[{"lat":31.006,"lon":75.708,"detection_":58.0,"radiative_":5.0,"sat":"mod","state":"PB","district":"JALANDHAR"},{"lat":30.569,"lon":74.175,"detection_":66.0,"radiative_":6.3,"sat":"mod","state":"PB","district":"FAZILKA"},{"lat":31.298,"lon":74.76,"detection_":67.0,"radiative_":7.4,"sat":"mod","state":"PB","district":"TARN TARAN"},{"lat":31.179,"lon":75.159,"detection_":56.0,"radiative_":3.5,"sat":"mod","state":"PB","district":"KAPURTHALA"},{"lat":30.72358,"lon":76.34937,"detection_":8.0,"radiative_":0.5,"sat":"npp","state":"PB","district":"FATEHGARH SAHIB"},{"lat":31.18425,"lon":75.16074,"detection_":8.0,"radiative_":1.0,"sat":"npp","state":"PB","district":"KAPURTHALA"},{"lat":31.18506,"lon":75.16521,"detection_":8.0,"radiative_":1.9,"sat":"npp","state":"PB","district":"KAPURTHALA"},{"lat":30.49846,"lon":76.04118,"detection_":8.0,"radiative_":10.5,"sat":"npp","state":"PB","district":"SANGRUR"},{"lat":30.74437,"lon":75.24898,"detection_":8.0,"radiative_":5.5,"sat":"npp","state":"PB","district":"MOGA"}],"districts":{"AMRITSAR":0,"BARNALA":0,"BATHINDA":0,"FARIDKOT":0,"FATEHGARH SAHIB":1,"FAZILKA":1,"FIROZPUR":0,"GURDASPUR":0,"HOSHIARPUR":0,"JALANDHAR":1,"KAPURTHALA":3,"LUDHIANA":0,"MANSA":0,"MOGA":1,"MUKTSAR":0,"SBS NAGAR":0,"PATHANKOT":0,"PATIALA":0,"RUPNAGAR":0,"SANGRUR":1,"SAS NAGAR (MOHALI)":0,"TARN TARAN":1}}