{"last_update":"5:11 PM, 28 Apr 2024","total":12,"locations":[{"lat":30.74,"lon":75.39,"detection_":67.0,"radiative_":10.2,"sat":"mod","state":"PB","district":"LUDHIANA"},{"lat":30.129,"lon":75.382,"detection_":86.0,"radiative_":30.6,"sat":"mod","state":"PB","district":"MANSA"},{"lat":32.02988,"lon":75.58942,"detection_":8.0,"radiative_":5.5,"sat":"npp","state":"PB","district":"HOSHIARPUR"},{"lat":32.03024,"lon":75.59202,"detection_":8.0,"radiative_":6.3,"sat":"npp","state":"PB","district":"HOSHIARPUR"},{"lat":30.1223,"lon":75.12798,"detection_":8.0,"radiative_":5.0,"sat":"npp","state":"PB","district":"BATHINDA"},{"lat":30.81779,"lon":76.71418,"detection_":8.0,"radiative_":5.4,"sat":"npp","state":"PB","district":"SAS NAGAR (MOHALI)"},{"lat":30.09325,"lon":75.45273,"detection_":8.0,"radiative_":6.2,"sat":"npp","state":"PB","district":"MANSA"},{"lat":29.86746,"lon":75.76322,"detection_":8.0,"radiative_":6.6,"sat":"npp","state":"PB","district":"SANGRUR"},{"lat":30.33784,"lon":75.3614,"detection_":8.0,"radiative_":6.3,"sat":"npp","state":"PB","district":"BARNALA"},{"lat":30.38089,"lon":75.27424,"detection_":8.0,"radiative_":6.0,"sat":"npp","state":"PB","district":"BATHINDA"},{"lat":29.89609,"lon":75.92152,"detection_":8.0,"radiative_":39.1,"sat":"npp","state":"PB","district":"SANGRUR"},{"lat":30.81892,"lon":76.71465,"detection_":8.0,"radiative_":9.6,"sat":"npp","state":"PB","district":"SAS NAGAR (MOHALI)"}],"districts":{"AMRITSAR":0,"BARNALA":1,"BATHINDA":2,"FARIDKOT":0,"FATEHGARH SAHIB":0,"FAZILKA":0,"FIROZPUR":0,"GURDASPUR":0,"HOSHIARPUR":2,"JALANDHAR":0,"KAPURTHALA":0,"LUDHIANA":1,"MANSA":2,"MOGA":0,"MUKTSAR":0,"SBS NAGAR":0,"PATHANKOT":0,"PATIALA":0,"RUPNAGAR":0,"SANGRUR":2,"SAS NAGAR (MOHALI)":2,"TARN TARAN":0}}