{"last_update":"6:29 PM, 25 Dec 2024","total":10,"locations":[{"lat":31.757,"lon":74.991,"detection_":51.0,"radiative_":4.1,"sat":"mod","state":"PB","district":"AMRITSAR"},{"lat":31.755,"lon":74.981,"detection_":72.0,"radiative_":10.4,"sat":"mod","state":"PB","district":"AMRITSAR"},{"lat":30.898,"lon":76.064,"detection_":52.0,"radiative_":3.7,"sat":"mod","state":"PB","district":"LUDHIANA"},{"lat":31.85,"lon":74.807,"detection_":51.0,"radiative_":4.2,"sat":"mod","state":"PB","district":"AMRITSAR"},{"lat":32.00638,"lon":75.58134,"detection_":8.0,"radiative_":3.2,"sat":"npp","state":"PB","district":"HOSHIARPUR"},{"lat":31.04072,"lon":75.89722,"detection_":8.0,"radiative_":4.5,"sat":"npp","state":"PB","district":"JALANDHAR"},{"lat":31.52558,"lon":75.6804,"detection_":8.0,"radiative_":2.2,"sat":"npp","state":"PB","district":"JALANDHAR"},{"lat":32.11343,"lon":75.30999,"detection_":8.0,"radiative_":2.3,"sat":"npp","state":"PB","district":"GURDASPUR"},{"lat":31.97598,"lon":74.95802,"detection_":8.0,"radiative_":1.6,"sat":"npp","state":"PB","district":"GURDASPUR"},{"lat":31.52931,"lon":75.86187,"detection_":8.0,"radiative_":2.0,"sat":"npp","state":"PB","district":"HOSHIARPUR"}],"districts":{"AMRITSAR":3,"BARNALA":0,"BATHINDA":0,"FARIDKOT":0,"FATEHGARH SAHIB":0,"FAZILKA":0,"FIROZPUR":0,"GURDASPUR":2,"HOSHIARPUR":2,"JALANDHAR":2,"KAPURTHALA":0,"LUDHIANA":1,"MANSA":0,"MOGA":0,"MUKTSAR":0,"SBS NAGAR":0,"PATHANKOT":0,"PATIALA":0,"RUPNAGAR":0,"SANGRUR":0,"SAS NAGAR (MOHALI)":0,"TARN TARAN":0}}