{"last_update":"11:11 PM, 23 Feb 2024","total":9,"locations":[{"lat":32.004,"lon":74.903,"detection_":44.0,"radiative_":4.3,"sat":"mod","state":"PB","district":"AMRITSAR"},{"lat":31.3736,"lon":75.8479,"detection_":8.0,"radiative_":2.2,"sat":"npp","state":"PB","district":"HOSHIARPUR"},{"lat":31.7054,"lon":75.44239,"detection_":8.0,"radiative_":2.1,"sat":"npp","state":"PB","district":"GURDASPUR"},{"lat":31.87972,"lon":75.59445,"detection_":8.0,"radiative_":2.5,"sat":"npp","state":"PB","district":"HOSHIARPUR"},{"lat":31.15438,"lon":75.9015,"detection_":8.0,"radiative_":2.9,"sat":"npp","state":"PB","district":"SBS NAGAR"},{"lat":31.61428,"lon":75.65758,"detection_":8.0,"radiative_":7.1,"sat":"npp","state":"PB","district":"HOSHIARPUR"},{"lat":31.38643,"lon":75.16145,"detection_":8.0,"radiative_":1.6,"sat":"npp","state":"PB","district":"TARN TARAN"},{"lat":31.07536,"lon":75.9278,"detection_":8.0,"radiative_":7.2,"sat":"npp","state":"PB","district":"JALANDHAR"},{"lat":31.84997,"lon":75.28974,"detection_":8.0,"radiative_":5.3,"sat":"npp","state":"PB","district":"GURDASPUR"}],"districts":{"AMRITSAR":1,"BARNALA":0,"BATHINDA":0,"FARIDKOT":0,"FATEHGARH SAHIB":0,"FAZILKA":0,"FIROZPUR":0,"GURDASPUR":2,"HOSHIARPUR":3,"JALANDHAR":1,"KAPURTHALA":0,"LUDHIANA":0,"MANSA":0,"MOGA":0,"MUKTSAR":0,"SBS NAGAR":1,"PATHANKOT":0,"PATIALA":0,"RUPNAGAR":0,"SANGRUR":0,"SAS NAGAR (MOHALI)":0,"TARN TARAN":1}}