{"last_update":"1:11 PM, 28 May 2024","total":10,"locations":[{"lat":31.725,"lon":74.533,"detection_":67.0,"radiative_":8.4,"sat":"mod","state":"PB","district":"AMRITSAR"},{"lat":31.715,"lon":74.532,"detection_":95.0,"radiative_":17.9,"sat":"mod","state":"PB","district":"AMRITSAR"},{"lat":30.13337,"lon":76.57536,"detection_":8.0,"radiative_":2.3,"sat":"npp","state":"PB","district":"PATIALA"},{"lat":31.74592,"lon":74.53159,"detection_":8.0,"radiative_":19.5,"sat":"npp","state":"PB","district":"AMRITSAR"},{"lat":30.13307,"lon":76.57348,"detection_":8.0,"radiative_":1.8,"sat":"npp","state":"PB","district":"PATIALA"},{"lat":30.41196,"lon":76.67931,"detection_":8.0,"radiative_":1.1,"sat":"npp","state":"PB","district":"PATIALA"},{"lat":31.26089,"lon":75.91808,"detection_":8.0,"radiative_":0.9,"sat":"npp","state":"PB","district":"SBS NAGAR"},{"lat":31.25975,"lon":75.91918,"detection_":8.0,"radiative_":1.3,"sat":"npp","state":"PB","district":"SBS NAGAR"},{"lat":31.96133,"lon":75.86754,"detection_":8.0,"radiative_":4.7,"sat":"npp","state":"PB","district":"HOSHIARPUR"},{"lat":30.28998,"lon":75.17919,"detection_":8.0,"radiative_":4.4,"sat":"npp","state":"PB","district":"BATHINDA"}],"districts":{"AMRITSAR":3,"BARNALA":0,"BATHINDA":1,"FARIDKOT":0,"FATEHGARH SAHIB":0,"FAZILKA":0,"FIROZPUR":0,"GURDASPUR":0,"HOSHIARPUR":1,"JALANDHAR":0,"KAPURTHALA":0,"LUDHIANA":0,"MANSA":0,"MOGA":0,"MUKTSAR":0,"SBS NAGAR":2,"PATHANKOT":0,"PATIALA":3,"RUPNAGAR":0,"SANGRUR":0,"SAS NAGAR (MOHALI)":0,"TARN TARAN":0}}