{"last_update":"3:14 PM, 26 Nov 2024","total":9,"locations":[{"lat":29.95905,"lon":74.99512,"detection_":8.0,"radiative_":4.3,"sat":"npp","state":"PB","district":"BATHINDA"},{"lat":30.48731,"lon":76.35491,"detection_":8.0,"radiative_":5.7,"sat":"npp","state":"PB","district":"FATEHGARH SAHIB"},{"lat":30.35214,"lon":74.61108,"detection_":8.0,"radiative_":2.6,"sat":"npp","state":"PB","district":"MUKTSAR"},{"lat":30.3343,"lon":75.60179,"detection_":8.0,"radiative_":3.9,"sat":"npp","state":"PB","district":"BARNALA"},{"lat":31.47217,"lon":76.05033,"detection_":8.0,"radiative_":1.5,"sat":"npp","state":"PB","district":"HOSHIARPUR"},{"lat":31.52084,"lon":75.75352,"detection_":8.0,"radiative_":2.0,"sat":"npp","state":"PB","district":"HOSHIARPUR"},{"lat":30.66087,"lon":75.82189,"detection_":8.0,"radiative_":2.7,"sat":"npp","state":"PB","district":"SANGRUR"},{"lat":30.55743,"lon":74.45571,"detection_":8.0,"radiative_":4.9,"sat":"npp","state":"PB","district":"MUKTSAR"},{"lat":31.43043,"lon":75.4095,"detection_":8.0,"radiative_":3.3,"sat":"npp","state":"PB","district":"KAPURTHALA"}],"districts":{"AMRITSAR":0,"BARNALA":1,"BATHINDA":1,"FARIDKOT":0,"FATEHGARH SAHIB":1,"FAZILKA":0,"FIROZPUR":0,"GURDASPUR":0,"HOSHIARPUR":2,"JALANDHAR":0,"KAPURTHALA":1,"LUDHIANA":0,"MANSA":0,"MOGA":0,"MUKTSAR":2,"SBS NAGAR":0,"PATHANKOT":0,"PATIALA":0,"RUPNAGAR":0,"SANGRUR":1,"SAS NAGAR (MOHALI)":0,"TARN TARAN":0}}