{"last_update":"4:17 PM, 04 Dec 2024","total":14,"locations":[{"lat":31.33544,"lon":75.23302,"detection_":8.0,"radiative_":0.6,"sat":"npp","state":"PB","district":"KAPURTHALA"},{"lat":30.71367,"lon":75.86422,"detection_":8.0,"radiative_":2.9,"sat":"npp","state":"PB","district":"LUDHIANA"},{"lat":31.8356,"lon":75.37888,"detection_":8.0,"radiative_":4.7,"sat":"npp","state":"PB","district":"GURDASPUR"},{"lat":31.95589,"lon":75.6468,"detection_":8.0,"radiative_":5.2,"sat":"npp","state":"PB","district":"HOSHIARPUR"},{"lat":31.83502,"lon":75.37462,"detection_":8.0,"radiative_":3.8,"sat":"npp","state":"PB","district":"GURDASPUR"},{"lat":30.71181,"lon":75.86569,"detection_":8.0,"radiative_":1.8,"sat":"npp","state":"PB","district":"LUDHIANA"},{"lat":31.07177,"lon":75.64909,"detection_":8.0,"radiative_":2.1,"sat":"npp","state":"PB","district":"JALANDHAR"},{"lat":31.09609,"lon":76.16489,"detection_":8.0,"radiative_":2.6,"sat":"npp","state":"PB","district":"SBS NAGAR"},{"lat":30.56307,"lon":74.22553,"detection_":8.0,"radiative_":4.5,"sat":"npp","state":"PB","district":"FAZILKA"},{"lat":30.82937,"lon":74.67753,"detection_":8.0,"radiative_":2.9,"sat":"npp","state":"PB","district":"FIROZPUR"},{"lat":30.55168,"lon":76.32305,"detection_":8.0,"radiative_":4.4,"sat":"npp","state":"PB","district":"FATEHGARH SAHIB"},{"lat":30.36293,"lon":74.09219,"detection_":8.0,"radiative_":16.7,"sat":"npp","state":"PB","district":"FAZILKA"},{"lat":30.44344,"lon":73.97438,"detection_":8.0,"radiative_":6.4,"sat":"npp","state":"PB","district":"FAZILKA"},{"lat":30.55381,"lon":76.3239,"detection_":8.0,"radiative_":2.9,"sat":"npp","state":"PB","district":"FATEHGARH SAHIB"}],"districts":{"AMRITSAR":0,"BARNALA":0,"BATHINDA":0,"FARIDKOT":0,"FATEHGARH SAHIB":2,"FAZILKA":3,"FIROZPUR":1,"GURDASPUR":2,"HOSHIARPUR":1,"JALANDHAR":1,"KAPURTHALA":1,"LUDHIANA":2,"MANSA":0,"MOGA":0,"MUKTSAR":0,"SBS NAGAR":1,"PATHANKOT":0,"PATIALA":0,"RUPNAGAR":0,"SANGRUR":0,"SAS NAGAR (MOHALI)":0,"TARN TARAN":0}}