{"last_update":"7:11 PM, 26 Apr 2024","total":14,"locations":[{"lat":30.98,"lon":76.246,"detection_":69.0,"radiative_":7.4,"sat":"mod","state":"PB","district":"LUDHIANA"},{"lat":30.887,"lon":76.015,"detection_":73.0,"radiative_":7.7,"sat":"mod","state":"PB","district":"LUDHIANA"},{"lat":31.249,"lon":75.524,"detection_":63.0,"radiative_":8.0,"sat":"mod","state":"PB","district":"JALANDHAR"},{"lat":30.18467,"lon":76.32458,"detection_":8.0,"radiative_":2.5,"sat":"npp","state":"PB","district":"PATIALA"},{"lat":30.95619,"lon":75.28906,"detection_":8.0,"radiative_":1.5,"sat":"npp","state":"PB","district":"MOGA"},{"lat":30.93999,"lon":76.20163,"detection_":8.0,"radiative_":5.0,"sat":"npp","state":"PB","district":"LUDHIANA"},{"lat":29.85063,"lon":75.12736,"detection_":8.0,"radiative_":4.8,"sat":"npp","state":"PB","district":"BATHINDA"},{"lat":30.98654,"lon":74.888,"detection_":8.0,"radiative_":8.8,"sat":"npp","state":"PB","district":"FIROZPUR"},{"lat":30.9357,"lon":76.20102,"detection_":8.0,"radiative_":5.0,"sat":"npp","state":"PB","district":"LUDHIANA"},{"lat":31.20761,"lon":75.53616,"detection_":8.0,"radiative_":3.8,"sat":"npp","state":"PB","district":"JALANDHAR"},{"lat":30.48372,"lon":74.47511,"detection_":8.0,"radiative_":5.0,"sat":"npp","state":"PB","district":"MUKTSAR"},{"lat":30.00434,"lon":75.61501,"detection_":8.0,"radiative_":6.5,"sat":"npp","state":"PB","district":"MANSA"},{"lat":30.38298,"lon":76.46581,"detection_":8.0,"radiative_":0.3,"sat":"npp","state":"PB","district":"PATIALA"},{"lat":30.68389,"lon":75.2935,"detection_":8.0,"radiative_":1.9,"sat":"npp","state":"PB","district":"MOGA"}],"districts":{"AMRITSAR":0,"BARNALA":0,"BATHINDA":1,"FARIDKOT":0,"FATEHGARH SAHIB":0,"FAZILKA":0,"FIROZPUR":1,"GURDASPUR":0,"HOSHIARPUR":0,"JALANDHAR":2,"KAPURTHALA":0,"LUDHIANA":4,"MANSA":1,"MOGA":2,"MUKTSAR":1,"SBS NAGAR":0,"PATHANKOT":0,"PATIALA":2,"RUPNAGAR":0,"SANGRUR":0,"SAS NAGAR (MOHALI)":0,"TARN TARAN":0}}