{"last_update":"8:15 PM, 06 Dec 2024","total":5,"locations":[{"lat":31.85406,"lon":75.63185,"detection_":8.0,"radiative_":3.0,"sat":"npp","state":"PB","district":"HOSHIARPUR"},{"lat":30.94493,"lon":76.12968,"detection_":8.0,"radiative_":4.9,"sat":"npp","state":"PB","district":"LUDHIANA"},{"lat":31.05371,"lon":76.01939,"detection_":8.0,"radiative_":6.3,"sat":"npp","state":"PB","district":"SBS NAGAR"},{"lat":32.05051,"lon":75.3316,"detection_":8.0,"radiative_":3.4,"sat":"npp","state":"PB","district":"GURDASPUR"},{"lat":31.98949,"lon":74.91331,"detection_":8.0,"radiative_":4.1,"sat":"npp","state":"PB","district":"AMRITSAR"}],"districts":{"AMRITSAR":1,"BARNALA":0,"BATHINDA":0,"FARIDKOT":0,"FATEHGARH SAHIB":0,"FAZILKA":0,"FIROZPUR":0,"GURDASPUR":1,"HOSHIARPUR":1,"JALANDHAR":0,"KAPURTHALA":0,"LUDHIANA":1,"MANSA":0,"MOGA":0,"MUKTSAR":0,"SBS NAGAR":1,"PATHANKOT":0,"PATIALA":0,"RUPNAGAR":0,"SANGRUR":0,"SAS NAGAR (MOHALI)":0,"TARN TARAN":0}}