{"last_update":"8:15 PM, 03 Dec 2024","total":11,"locations":[{"lat":30.344,"lon":74.327,"detection_":67.0,"radiative_":9.0,"sat":"mod","state":"PB","district":"MUKTSAR"},{"lat":30.173,"lon":74.355,"detection_":85.0,"radiative_":31.5,"sat":"mod","state":"PB","district":"MUKTSAR"},{"lat":30.767,"lon":76.434,"detection_":63.0,"radiative_":9.6,"sat":"mod","state":"PB","district":"FATEHGARH SAHIB"},{"lat":30.342,"lon":74.315,"detection_":63.0,"radiative_":7.0,"sat":"mod","state":"PB","district":"FAZILKA"},{"lat":31.729,"lon":75.289,"detection_":60.0,"radiative_":6.4,"sat":"mod","state":"PB","district":"GURDASPUR"},{"lat":31.18905,"lon":75.95988,"detection_":8.0,"radiative_":2.7,"sat":"npp","state":"PB","district":"SBS NAGAR"},{"lat":29.8088,"lon":75.44736,"detection_":8.0,"radiative_":2.4,"sat":"npp","state":"PB","district":"MANSA"},{"lat":30.33348,"lon":74.33947,"detection_":8.0,"radiative_":3.5,"sat":"npp","state":"PB","district":"MUKTSAR"},{"lat":30.18672,"lon":74.58508,"detection_":8.0,"radiative_":3.8,"sat":"npp","state":"PB","district":"MUKTSAR"},{"lat":30.07043,"lon":74.72166,"detection_":8.0,"radiative_":4.1,"sat":"npp","state":"PB","district":"BATHINDA"},{"lat":30.2047,"lon":74.04253,"detection_":8.0,"radiative_":4.8,"sat":"npp","state":"PB","district":"FAZILKA"}],"districts":{"AMRITSAR":0,"BARNALA":0,"BATHINDA":1,"FARIDKOT":0,"FATEHGARH SAHIB":1,"FAZILKA":2,"FIROZPUR":0,"GURDASPUR":1,"HOSHIARPUR":0,"JALANDHAR":0,"KAPURTHALA":0,"LUDHIANA":0,"MANSA":1,"MOGA":0,"MUKTSAR":4,"SBS NAGAR":1,"PATHANKOT":0,"PATIALA":0,"RUPNAGAR":0,"SANGRUR":0,"SAS NAGAR (MOHALI)":0,"TARN TARAN":0}}