{"last_update":"9:11 PM, 29 Jun 2024","total":10,"locations":[{"lat":31.11,"lon":75.167,"detection_":67.0,"radiative_":9.4,"sat":"mod","state":"PB","district":"JALANDHAR"},{"lat":31.176,"lon":75.297,"detection_":45.0,"radiative_":5.8,"sat":"mod","state":"PB","district":"JALANDHAR"},{"lat":31.281,"lon":75.375,"detection_":60.0,"radiative_":7.9,"sat":"mod","state":"PB","district":"KAPURTHALA"},{"lat":31.125,"lon":75.388,"detection_":54.0,"radiative_":6.4,"sat":"mod","state":"PB","district":"JALANDHAR"},{"lat":31.203,"lon":75.541,"detection_":72.0,"radiative_":9.9,"sat":"mod","state":"PB","district":"JALANDHAR"},{"lat":31.005,"lon":75.27,"detection_":84.0,"radiative_":25.1,"sat":"mod","state":"PB","district":"MOGA"},{"lat":31.134,"lon":74.844,"detection_":81.0,"radiative_":21.3,"sat":"mod","state":"PB","district":"TARN TARAN"},{"lat":31.041,"lon":75.263,"detection_":64.0,"radiative_":8.7,"sat":"mod","state":"PB","district":"MOGA"},{"lat":30.815,"lon":75.666,"detection_":62.0,"radiative_":7.3,"sat":"mod","state":"PB","district":"LUDHIANA"},{"lat":30.77,"lon":75.665,"detection_":71.0,"radiative_":12.0,"sat":"mod","state":"PB","district":"LUDHIANA"}],"districts":{"AMRITSAR":0,"BARNALA":0,"BATHINDA":0,"FARIDKOT":0,"FATEHGARH SAHIB":0,"FAZILKA":0,"FIROZPUR":0,"GURDASPUR":0,"HOSHIARPUR":0,"JALANDHAR":4,"KAPURTHALA":1,"LUDHIANA":2,"MANSA":0,"MOGA":2,"MUKTSAR":0,"SBS NAGAR":0,"PATHANKOT":0,"PATIALA":0,"RUPNAGAR":0,"SANGRUR":0,"SAS NAGAR (MOHALI)":0,"TARN TARAN":1}}