{"last_update":"2:17 PM, 15 Oct 2024","total":12,"locations":[{"lat":30.00996,"lon":75.71589,"detection_":8.0,"radiative_":6.3,"sat":"npp","state":"PB","district":"SANGRUR"},{"lat":30.61333,"lon":76.83939,"detection_":8.0,"radiative_":3.4,"sat":"npp","state":"PB","district":"SAS NAGAR (MOHALI)"},{"lat":30.28289,"lon":76.18639,"detection_":8.0,"radiative_":13.2,"sat":"npp","state":"PB","district":"SANGRUR"},{"lat":30.81052,"lon":76.29282,"detection_":8.0,"radiative_":6.3,"sat":"npp","state":"PB","district":"FATEHGARH SAHIB"},{"lat":30.81227,"lon":76.29271,"detection_":8.0,"radiative_":6.8,"sat":"npp","state":"PB","district":"FATEHGARH SAHIB"},{"lat":30.37576,"lon":76.07319,"detection_":8.0,"radiative_":3.7,"sat":"npp","state":"PB","district":"PATIALA"},{"lat":30.2844,"lon":76.19199,"detection_":9.0,"radiative_":19.2,"sat":"npp","state":"PB","district":"SANGRUR"},{"lat":30.39918,"lon":76.42374,"detection_":8.0,"radiative_":4.7,"sat":"npp","state":"PB","district":"PATIALA"},{"lat":32.24704,"lon":75.37349,"detection_":8.0,"radiative_":6.0,"sat":"npp","state":"PB","district":"PATHANKOT"},{"lat":30.01104,"lon":75.71801,"detection_":8.0,"radiative_":7.4,"sat":"npp","state":"PB","district":"SANGRUR"},{"lat":30.19274,"lon":75.70222,"detection_":8.0,"radiative_":3.0,"sat":"npp","state":"PB","district":"SANGRUR"},{"lat":31.4462,"lon":74.76496,"detection_":8.0,"radiative_":3.2,"sat":"npp","state":"PB","district":"TARN TARAN"}],"districts":{"AMRITSAR":0,"BARNALA":0,"BATHINDA":0,"FARIDKOT":0,"FATEHGARH SAHIB":2,"FAZILKA":0,"FIROZPUR":0,"GURDASPUR":0,"HOSHIARPUR":0,"JALANDHAR":0,"KAPURTHALA":0,"LUDHIANA":0,"MANSA":0,"MOGA":0,"MUKTSAR":0,"SBS NAGAR":0,"PATHANKOT":1,"PATIALA":2,"RUPNAGAR":0,"SANGRUR":5,"SAS NAGAR (MOHALI)":1,"TARN TARAN":1}}