{"last_update":"2:17 PM, 28 Oct 2024","total":7,"locations":[{"lat":30.68,"lon":76.458,"detection_":67.0,"radiative_":18.3,"sat":"mod","state":"PB","district":"FATEHGARH SAHIB"},{"lat":29.82,"lon":76.041,"detection_":58.0,"radiative_":21.3,"sat":"mod","state":"PB","district":"SANGRUR"},{"lat":31.39273,"lon":75.07637,"detection_":8.0,"radiative_":0.4,"sat":"npp","state":"PB","district":"TARN TARAN"},{"lat":31.81491,"lon":75.30067,"detection_":8.0,"radiative_":0.6,"sat":"npp","state":"PB","district":"GURDASPUR"},{"lat":30.54617,"lon":76.8838,"detection_":8.0,"radiative_":0.5,"sat":"npp","state":"PB","district":"SAS NAGAR (MOHALI)"},{"lat":30.79439,"lon":76.15128,"detection_":8.0,"radiative_":1.0,"sat":"npp","state":"PB","district":"LUDHIANA"},{"lat":30.8583,"lon":76.47724,"detection_":8.0,"radiative_":0.4,"sat":"npp","state":"PB","district":"RUPNAGAR"}],"districts":{"AMRITSAR":0,"BARNALA":0,"BATHINDA":0,"FARIDKOT":0,"FATEHGARH SAHIB":1,"FAZILKA":0,"FIROZPUR":0,"GURDASPUR":1,"HOSHIARPUR":0,"JALANDHAR":0,"KAPURTHALA":0,"LUDHIANA":1,"MANSA":0,"MOGA":0,"MUKTSAR":0,"SBS NAGAR":0,"PATHANKOT":0,"PATIALA":0,"RUPNAGAR":1,"SANGRUR":1,"SAS NAGAR (MOHALI)":1,"TARN TARAN":1}}