{"last_update":"4:11 AM, 20 May 2024","total":16,"locations":[{"lat":30.5944,"lon":76.43755,"detection_":8.0,"radiative_":1.4,"sat":"npp","state":"PB","district":"FATEHGARH SAHIB"},{"lat":30.5976,"lon":76.44286,"detection_":8.0,"radiative_":1.2,"sat":"npp","state":"PB","district":"FATEHGARH SAHIB"},{"lat":31.25564,"lon":76.06254,"detection_":8.0,"radiative_":1.1,"sat":"npp","state":"PB","district":"HOSHIARPUR"},{"lat":30.97309,"lon":75.41871,"detection_":8.0,"radiative_":1.2,"sat":"npp","state":"PB","district":"LUDHIANA"},{"lat":30.96928,"lon":75.4177,"detection_":8.0,"radiative_":1.2,"sat":"npp","state":"PB","district":"LUDHIANA"},{"lat":31.05538,"lon":75.9379,"detection_":8.0,"radiative_":0.8,"sat":"npp","state":"PB","district":"JALANDHAR"},{"lat":31.11574,"lon":75.80204,"detection_":8.0,"radiative_":2.1,"sat":"npp","state":"PB","district":"JALANDHAR"},{"lat":31.6834,"lon":75.58496,"detection_":8.0,"radiative_":5.3,"sat":"npp","state":"PB","district":"HOSHIARPUR"},{"lat":31.25732,"lon":76.06367,"detection_":8.0,"radiative_":1.1,"sat":"npp","state":"PB","district":"HOSHIARPUR"},{"lat":31.87028,"lon":75.17307,"detection_":8.0,"radiative_":0.7,"sat":"npp","state":"PB","district":"GURDASPUR"},{"lat":31.33166,"lon":75.10822,"detection_":8.0,"radiative_":1.2,"sat":"npp","state":"PB","district":"TARN TARAN"},{"lat":31.23511,"lon":75.06059,"detection_":8.0,"radiative_":0.7,"sat":"npp","state":"PB","district":"TARN TARAN"},{"lat":31.33116,"lon":75.11055,"detection_":8.0,"radiative_":0.7,"sat":"npp","state":"PB","district":"TARN TARAN"},{"lat":30.13397,"lon":76.52376,"detection_":8.0,"radiative_":1.1,"sat":"npp","state":"PB","district":"PATIALA"},{"lat":30.33507,"lon":75.89036,"detection_":8.0,"radiative_":1.2,"sat":"npp","state":"PB","district":"SANGRUR"},{"lat":31.57405,"lon":75.96736,"detection_":8.0,"radiative_":1.2,"sat":"npp","state":"PB","district":"HOSHIARPUR"}],"districts":{"AMRITSAR":0,"BARNALA":0,"BATHINDA":0,"FARIDKOT":0,"FATEHGARH SAHIB":2,"FAZILKA":0,"FIROZPUR":0,"GURDASPUR":1,"HOSHIARPUR":4,"JALANDHAR":2,"KAPURTHALA":0,"LUDHIANA":2,"MANSA":0,"MOGA":0,"MUKTSAR":0,"SBS NAGAR":0,"PATHANKOT":0,"PATIALA":1,"RUPNAGAR":0,"SANGRUR":1,"SAS NAGAR (MOHALI)":0,"TARN TARAN":3}}