{"last_update":"7:11 PM, 09 Mar 2024","total":15,"locations":[{"lat":31.20558,"lon":76.10542,"detection_":8.0,"radiative_":2.3,"sat":"npp","state":"PB","district":"HOSHIARPUR"},{"lat":31.07973,"lon":75.90536,"detection_":8.0,"radiative_":4.5,"sat":"npp","state":"PB","district":"JALANDHAR"},{"lat":30.52366,"lon":76.01885,"detection_":8.0,"radiative_":2.9,"sat":"npp","state":"PB","district":"SANGRUR"},{"lat":30.52366,"lon":76.02099,"detection_":8.0,"radiative_":4.3,"sat":"npp","state":"PB","district":"SANGRUR"},{"lat":31.08733,"lon":76.13569,"detection_":8.0,"radiative_":1.6,"sat":"npp","state":"PB","district":"SBS NAGAR"},{"lat":31.32686,"lon":75.79839,"detection_":8.0,"radiative_":9.3,"sat":"npp","state":"PB","district":"KAPURTHALA"},{"lat":31.57924,"lon":75.73727,"detection_":8.0,"radiative_":10.6,"sat":"npp","state":"PB","district":"HOSHIARPUR"},{"lat":31.13394,"lon":76.25198,"detection_":8.0,"radiative_":4.5,"sat":"npp","state":"PB","district":"SBS NAGAR"},{"lat":31.18796,"lon":75.91769,"detection_":8.0,"radiative_":3.0,"sat":"npp","state":"PB","district":"SBS NAGAR"},{"lat":31.2039,"lon":75.58214,"detection_":8.0,"radiative_":2.1,"sat":"npp","state":"PB","district":"JALANDHAR"},{"lat":31.33861,"lon":75.81058,"detection_":8.0,"radiative_":7.6,"sat":"npp","state":"PB","district":"KAPURTHALA"},{"lat":31.79438,"lon":75.35164,"detection_":8.0,"radiative_":3.4,"sat":"npp","state":"PB","district":"GURDASPUR"},{"lat":30.65408,"lon":76.03263,"detection_":8.0,"radiative_":6.1,"sat":"npp","state":"PB","district":"LUDHIANA"},{"lat":32.15228,"lon":75.55032,"detection_":8.0,"radiative_":2.1,"sat":"npp","state":"PB","district":"PATHANKOT"},{"lat":32.09438,"lon":75.4306,"detection_":8.0,"radiative_":1.6,"sat":"npp","state":"PB","district":"GURDASPUR"}],"districts":{"AMRITSAR":0,"BARNALA":0,"BATHINDA":0,"FARIDKOT":0,"FATEHGARH SAHIB":0,"FAZILKA":0,"FIROZPUR":0,"GURDASPUR":2,"HOSHIARPUR":2,"JALANDHAR":2,"KAPURTHALA":2,"LUDHIANA":1,"MANSA":0,"MOGA":0,"MUKTSAR":0,"SBS NAGAR":3,"PATHANKOT":1,"PATIALA":0,"RUPNAGAR":0,"SANGRUR":2,"SAS NAGAR (MOHALI)":0,"TARN TARAN":0}}