{"last_update":"2:11 PM, 06 Apr 2024","total":8,"locations":[{"lat":31.278,"lon":75.774,"detection_":75.0,"radiative_":26.6,"sat":"mod","state":"PB","district":"KAPURTHALA"},{"lat":31.276,"lon":75.791,"detection_":53.0,"radiative_":9.1,"sat":"mod","state":"PB","district":"KAPURTHALA"},{"lat":31.142,"lon":75.991,"detection_":55.0,"radiative_":8.9,"sat":"mod","state":"PB","district":"SBS NAGAR"},{"lat":31.139,"lon":75.984,"detection_":59.0,"radiative_":9.6,"sat":"mod","state":"PB","district":"SBS NAGAR"},{"lat":30.761,"lon":76.53,"detection_":58.0,"radiative_":8.7,"sat":"mod","state":"PB","district":"SAS NAGAR (MOHALI)"},{"lat":31.56659,"lon":75.73714,"detection_":8.0,"radiative_":4.1,"sat":"npp","state":"PB","district":"HOSHIARPUR"},{"lat":31.56512,"lon":75.73168,"detection_":8.0,"radiative_":4.1,"sat":"npp","state":"PB","district":"HOSHIARPUR"},{"lat":30.90281,"lon":75.45602,"detection_":8.0,"radiative_":0.4,"sat":"npp","state":"PB","district":"LUDHIANA"}],"districts":{"AMRITSAR":0,"BARNALA":0,"BATHINDA":0,"FARIDKOT":0,"FATEHGARH SAHIB":0,"FAZILKA":0,"FIROZPUR":0,"GURDASPUR":0,"HOSHIARPUR":2,"JALANDHAR":0,"KAPURTHALA":2,"LUDHIANA":1,"MANSA":0,"MOGA":0,"MUKTSAR":0,"SBS NAGAR":2,"PATHANKOT":0,"PATIALA":0,"RUPNAGAR":0,"SANGRUR":0,"SAS NAGAR (MOHALI)":1,"TARN TARAN":0}}