{"last_update":"11:11 AM, 22 May 2024","total":9,"locations":[{"lat":30.71404,"lon":75.46884,"detection_":8.0,"radiative_":1.3,"sat":"npp","state":"PB","district":"LUDHIANA"},{"lat":30.59209,"lon":75.61961,"detection_":8.0,"radiative_":1.1,"sat":"npp","state":"PB","district":"BARNALA"},{"lat":30.25924,"lon":76.34189,"detection_":8.0,"radiative_":5.5,"sat":"npp","state":"PB","district":"PATIALA"},{"lat":30.25863,"lon":76.34657,"detection_":8.0,"radiative_":7.1,"sat":"npp","state":"PB","district":"PATIALA"},{"lat":32.20557,"lon":75.39165,"detection_":8.0,"radiative_":1.7,"sat":"npp","state":"PB","district":"PATHANKOT"},{"lat":32.18002,"lon":75.47726,"detection_":8.0,"radiative_":2.2,"sat":"npp","state":"PB","district":"PATHANKOT"},{"lat":31.41044,"lon":75.70235,"detection_":8.0,"radiative_":2.3,"sat":"npp","state":"PB","district":"JALANDHAR"},{"lat":31.22607,"lon":75.82574,"detection_":8.0,"radiative_":0.8,"sat":"npp","state":"PB","district":"KAPURTHALA"},{"lat":31.23536,"lon":75.07487,"detection_":8.0,"radiative_":0.7,"sat":"npp","state":"PB","district":"KAPURTHALA"}],"districts":{"AMRITSAR":0,"BARNALA":1,"BATHINDA":0,"FARIDKOT":0,"FATEHGARH SAHIB":0,"FAZILKA":0,"FIROZPUR":0,"GURDASPUR":0,"HOSHIARPUR":0,"JALANDHAR":1,"KAPURTHALA":2,"LUDHIANA":1,"MANSA":0,"MOGA":0,"MUKTSAR":0,"SBS NAGAR":0,"PATHANKOT":2,"PATIALA":2,"RUPNAGAR":0,"SANGRUR":0,"SAS NAGAR (MOHALI)":0,"TARN TARAN":0}}