{"last_update":"8:13 PM, 26 Apr 2025","total":21,"locations":[{"lat":30.18,"lon":75.024,"detection_":70.0,"radiative_":31.7,"sat":"mod","state":"PB","district":"BATHINDA"},{"lat":30.57,"lon":76.424,"detection_":81.0,"radiative_":43.6,"sat":"mod","state":"PB","district":"FATEHGARH SAHIB"},{"lat":30.185,"lon":75.048,"detection_":73.0,"radiative_":37.0,"sat":"mod","state":"PB","district":"BATHINDA"},{"lat":31.944,"lon":75.684,"detection_":80.0,"radiative_":33.2,"sat":"mod","state":"PB","district":"HOSHIARPUR"},{"lat":30.31,"lon":76.314,"detection_":79.0,"radiative_":11.3,"sat":"mod","state":"PB","district":"PATIALA"},{"lat":31.98818,"lon":75.63204,"detection_":8.0,"radiative_":0.8,"sat":"npp","state":"PB","district":"HOSHIARPUR"},{"lat":30.32304,"lon":75.19564,"detection_":8.0,"radiative_":1.3,"sat":"npp","state":"PB","district":"BATHINDA"},{"lat":31.56626,"lon":75.48743,"detection_":8.0,"radiative_":2.0,"sat":"npp","state":"PB","district":"KAPURTHALA"},{"lat":31.56218,"lon":75.48626,"detection_":8.0,"radiative_":2.0,"sat":"npp","state":"PB","district":"KAPURTHALA"},{"lat":30.74192,"lon":74.92619,"detection_":8.0,"radiative_":1.4,"sat":"npp","state":"PB","district":"MOGA"},{"lat":31.58074,"lon":75.50073,"detection_":8.0,"radiative_":0.9,"sat":"npp","state":"PB","district":"KAPURTHALA"},{"lat":30.49899,"lon":74.1571,"detection_":8.0,"radiative_":1.1,"sat":"npp","state":"PB","district":"FAZILKA"},{"lat":30.30912,"lon":76.31001,"detection_":8.0,"radiative_":8.1,"sat":"npp","state":"PB","district":"PATIALA"},{"lat":30.40482,"lon":75.41113,"detection_":8.0,"radiative_":0.9,"sat":"npp","state":"PB","district":"BARNALA"},{"lat":30.01251,"lon":75.09404,"detection_":8.0,"radiative_":2.5,"sat":"npp","state":"PB","district":"BATHINDA"},{"lat":30.1512,"lon":75.54105,"detection_":8.0,"radiative_":5.2,"sat":"npp","state":"PB","district":"BARNALA"},{"lat":30.09896,"lon":75.44662,"detection_":8.0,"radiative_":7.5,"sat":"npp","state":"PB","district":"MANSA"},{"lat":31.8114,"lon":75.51127,"detection_":8.0,"radiative_":7.8,"sat":"npp","state":"PB","district":"GURDASPUR"},{"lat":30.85433,"lon":76.67789,"detection_":8.0,"radiative_":3.0,"sat":"npp","state":"PB","district":"SAS NAGAR (MOHALI)"},{"lat":30.49821,"lon":75.14317,"detection_":8.0,"radiative_":12.2,"sat":"npp","state":"PB","district":"BATHINDA"},{"lat":31.14288,"lon":75.02355,"detection_":8.0,"radiative_":2.8,"sat":"npp","state":"PB","district":"FIROZPUR"}],"districts":{"AMRITSAR":0,"BARNALA":2,"BATHINDA":5,"FARIDKOT":0,"FATEHGARH SAHIB":1,"FAZILKA":1,"FIROZPUR":1,"GURDASPUR":1,"HOSHIARPUR":2,"JALANDHAR":0,"KAPURTHALA":3,"LUDHIANA":0,"MANSA":1,"MOGA":1,"MUKTSAR":0,"SBS NAGAR":0,"PATHANKOT":0,"PATIALA":2,"RUPNAGAR":0,"SANGRUR":0,"SAS NAGAR (MOHALI)":1,"TARN TARAN":0}}