{"last_update":"4:16 PM, 25 May 2025","total":12,"locations":[{"lat":30.543,"lon":76.345,"detection_":73.0,"radiative_":15.2,"sat":"mod","state":"PB","district":"FATEHGARH SAHIB"},{"lat":30.444,"lon":74.937,"detection_":75.0,"radiative_":25.2,"sat":"mod","state":"PB","district":"FARIDKOT"},{"lat":30.794,"lon":75.325,"detection_":56.0,"radiative_":11.1,"sat":"mod","state":"PB","district":"MOGA"},{"lat":30.26517,"lon":74.37291,"detection_":8.0,"radiative_":4.8,"sat":"npp","state":"PB","district":"MUKTSAR"},{"lat":31.40265,"lon":75.27446,"detection_":8.0,"radiative_":4.0,"sat":"npp","state":"PB","district":"KAPURTHALA"},{"lat":30.52166,"lon":76.02081,"detection_":8.0,"radiative_":2.5,"sat":"npp","state":"PB","district":"SANGRUR"},{"lat":31.13322,"lon":74.63858,"detection_":8.0,"radiative_":4.1,"sat":"npp","state":"PB","district":"TARN TARAN"},{"lat":30.41577,"lon":74.20065,"detection_":8.0,"radiative_":35.3,"sat":"npp","state":"PB","district":"FAZILKA"},{"lat":30.54177,"lon":74.76777,"detection_":8.0,"radiative_":7.5,"sat":"npp","state":"PB","district":"FARIDKOT"},{"lat":30.44182,"lon":76.37951,"detection_":8.0,"radiative_":9.4,"sat":"npp","state":"PB","district":"PATIALA"},{"lat":30.77706,"lon":75.99343,"detection_":8.0,"radiative_":5.4,"sat":"npp","state":"PB","district":"LUDHIANA"},{"lat":31.80653,"lon":75.03677,"detection_":8.0,"radiative_":6.1,"sat":"npp","state":"PB","district":"GURDASPUR"}],"districts":{"AMRITSAR":0,"BARNALA":0,"BATHINDA":0,"FARIDKOT":2,"FATEHGARH SAHIB":1,"FAZILKA":1,"FIROZPUR":0,"GURDASPUR":1,"HOSHIARPUR":0,"JALANDHAR":0,"KAPURTHALA":1,"LUDHIANA":1,"MANSA":0,"MOGA":1,"MUKTSAR":1,"SBS NAGAR":0,"PATHANKOT":0,"PATIALA":1,"RUPNAGAR":0,"SANGRUR":1,"SAS NAGAR (MOHALI)":0,"TARN TARAN":1}}