{"last_update":"7:15 PM, 20 Mar 2025","total":12,"locations":[{"lat":31.43,"lon":75.634,"detection_":40.0,"radiative_":3.2,"sat":"mod","state":"PB","district":"JALANDHAR"},{"lat":31.149,"lon":75.012,"detection_":62.0,"radiative_":10.1,"sat":"mod","state":"PB","district":"KAPURTHALA"},{"lat":32.179,"lon":75.583,"detection_":59.0,"radiative_":5.7,"sat":"mod","state":"PB","district":"PATHANKOT"},{"lat":31.705,"lon":74.834,"detection_":42.0,"radiative_":5.4,"sat":"mod","state":"PB","district":"AMRITSAR"},{"lat":31.307,"lon":75.343,"detection_":59.0,"radiative_":5.9,"sat":"mod","state":"PB","district":"KAPURTHALA"},{"lat":31.431,"lon":75.645,"detection_":65.0,"radiative_":7.1,"sat":"mod","state":"PB","district":"JALANDHAR"},{"lat":30.25904,"lon":75.20898,"detection_":8.0,"radiative_":4.9,"sat":"npp","state":"PB","district":"BATHINDA"},{"lat":31.86805,"lon":75.28625,"detection_":8.0,"radiative_":4.3,"sat":"npp","state":"PB","district":"GURDASPUR"},{"lat":30.62311,"lon":76.60497,"detection_":8.0,"radiative_":3.5,"sat":"npp","state":"PB","district":"FATEHGARH SAHIB"},{"lat":31.34573,"lon":75.71973,"detection_":8.0,"radiative_":23.9,"sat":"npp","state":"PB","district":"JALANDHAR"},{"lat":31.84107,"lon":75.44016,"detection_":8.0,"radiative_":1.6,"sat":"npp","state":"PB","district":"GURDASPUR"},{"lat":30.35552,"lon":75.79911,"detection_":8.0,"radiative_":5.7,"sat":"npp","state":"PB","district":"SANGRUR"}],"districts":{"AMRITSAR":1,"BARNALA":0,"BATHINDA":1,"FARIDKOT":0,"FATEHGARH SAHIB":1,"FAZILKA":0,"FIROZPUR":0,"GURDASPUR":2,"HOSHIARPUR":0,"JALANDHAR":3,"KAPURTHALA":2,"LUDHIANA":0,"MANSA":0,"MOGA":0,"MUKTSAR":0,"SBS NAGAR":0,"PATHANKOT":1,"PATIALA":0,"RUPNAGAR":0,"SANGRUR":1,"SAS NAGAR (MOHALI)":0,"TARN TARAN":0}}