{"last_update":"3:11 AM, 11 May 2025","total":10,"locations":[{"lat":31.66892,"lon":75.05279,"detection_":8.0,"radiative_":0.6,"sat":"npp","state":"PB","district":"AMRITSAR"},{"lat":31.16055,"lon":75.92165,"detection_":8.0,"radiative_":1.9,"sat":"npp","state":"PB","district":"SBS NAGAR"},{"lat":31.04215,"lon":75.16364,"detection_":8.0,"radiative_":0.8,"sat":"npp","state":"PB","district":"MOGA"},{"lat":30.85889,"lon":75.29654,"detection_":8.0,"radiative_":0.9,"sat":"npp","state":"PB","district":"MOGA"},{"lat":31.16184,"lon":75.92182,"detection_":8.0,"radiative_":1.1,"sat":"npp","state":"PB","district":"SBS NAGAR"},{"lat":31.17954,"lon":75.06911,"detection_":8.0,"radiative_":1.2,"sat":"npp","state":"PB","district":"KAPURTHALA"},{"lat":31.16022,"lon":75.92768,"detection_":8.0,"radiative_":1.4,"sat":"npp","state":"PB","district":"SBS NAGAR"},{"lat":30.71933,"lon":76.02259,"detection_":8.0,"radiative_":0.8,"sat":"npp","state":"PB","district":"LUDHIANA"},{"lat":30.42668,"lon":76.01215,"detection_":8.0,"radiative_":0.6,"sat":"npp","state":"PB","district":"SANGRUR"},{"lat":30.42874,"lon":76.01131,"detection_":8.0,"radiative_":0.6,"sat":"npp","state":"PB","district":"SANGRUR"}],"districts":{"AMRITSAR":1,"BARNALA":0,"BATHINDA":0,"FARIDKOT":0,"FATEHGARH SAHIB":0,"FAZILKA":0,"FIROZPUR":0,"GURDASPUR":0,"HOSHIARPUR":0,"JALANDHAR":0,"KAPURTHALA":1,"LUDHIANA":1,"MANSA":0,"MOGA":2,"MUKTSAR":0,"SBS NAGAR":3,"PATHANKOT":0,"PATIALA":0,"RUPNAGAR":0,"SANGRUR":2,"SAS NAGAR (MOHALI)":0,"TARN TARAN":0}}