{"last_update":"3:17 PM, 12 Jun 2025","total":16,"locations":[{"lat":30.34753,"lon":75.99899,"detection_":8.0,"radiative_":5.2,"sat":"npp","state":"PB","district":"PATIALA"},{"lat":31.10326,"lon":75.36721,"detection_":8.0,"radiative_":4.3,"sat":"npp","state":"PB","district":"JALANDHAR"},{"lat":30.34903,"lon":76.20436,"detection_":9.0,"radiative_":9.6,"sat":"npp","state":"PB","district":"PATIALA"},{"lat":31.46011,"lon":75.55353,"detection_":8.0,"radiative_":3.1,"sat":"npp","state":"PB","district":"JALANDHAR"},{"lat":30.38152,"lon":76.37585,"detection_":8.0,"radiative_":3.9,"sat":"npp","state":"PB","district":"PATIALA"},{"lat":30.67172,"lon":76.14951,"detection_":8.0,"radiative_":2.5,"sat":"npp","state":"PB","district":"LUDHIANA"},{"lat":30.85041,"lon":76.18325,"detection_":8.0,"radiative_":7.6,"sat":"npp","state":"PB","district":"LUDHIANA"},{"lat":31.2283,"lon":75.16891,"detection_":8.0,"radiative_":4.6,"sat":"npp","state":"PB","district":"KAPURTHALA"},{"lat":31.22895,"lon":75.16879,"detection_":8.0,"radiative_":3.1,"sat":"npp","state":"PB","district":"KAPURTHALA"},{"lat":30.96501,"lon":74.91817,"detection_":8.0,"radiative_":2.9,"sat":"npp","state":"PB","district":"FIROZPUR"},{"lat":30.34957,"lon":75.99474,"detection_":8.0,"radiative_":5.5,"sat":"npp","state":"PB","district":"PATIALA"},{"lat":30.28289,"lon":75.42432,"detection_":8.0,"radiative_":2.1,"sat":"npp","state":"PB","district":"BARNALA"},{"lat":31.41555,"lon":75.48895,"detection_":8.0,"radiative_":1.3,"sat":"npp","state":"PB","district":"JALANDHAR"},{"lat":31.52626,"lon":75.04749,"detection_":9.0,"radiative_":11.4,"sat":"npp","state":"PB","district":"AMRITSAR"},{"lat":30.59261,"lon":76.21584,"detection_":8.0,"radiative_":4.2,"sat":"npp","state":"PB","district":"FATEHGARH SAHIB"},{"lat":31.52713,"lon":75.04509,"detection_":8.0,"radiative_":8.8,"sat":"npp","state":"PB","district":"AMRITSAR"}],"districts":{"AMRITSAR":2,"BARNALA":1,"BATHINDA":0,"FARIDKOT":0,"FATEHGARH SAHIB":1,"FAZILKA":0,"FIROZPUR":1,"GURDASPUR":0,"HOSHIARPUR":0,"JALANDHAR":3,"KAPURTHALA":2,"LUDHIANA":2,"MANSA":0,"MOGA":0,"MUKTSAR":0,"SBS NAGAR":0,"PATHANKOT":0,"PATIALA":4,"RUPNAGAR":0,"SANGRUR":0,"SAS NAGAR (MOHALI)":0,"TARN TARAN":0}}