{"last_update":"6:38 PM, 29 May 2025","total":15,"locations":[{"lat":31.167,"lon":75.074,"detection_":67.0,"radiative_":19.6,"sat":"mod","state":"PB","district":"KAPURTHALA"},{"lat":32.10361,"lon":75.55492,"detection_":8.0,"radiative_":14.4,"sat":"npp","state":"PB","district":"GURDASPUR"},{"lat":31.96032,"lon":75.18764,"detection_":8.0,"radiative_":2.3,"sat":"npp","state":"PB","district":"GURDASPUR"},{"lat":31.96101,"lon":75.1835,"detection_":8.0,"radiative_":3.8,"sat":"npp","state":"PB","district":"GURDASPUR"},{"lat":30.88395,"lon":74.84726,"detection_":8.0,"radiative_":2.6,"sat":"npp","state":"PB","district":"FIROZPUR"},{"lat":30.97665,"lon":76.09657,"detection_":8.0,"radiative_":14.4,"sat":"npp","state":"PB","district":"LUDHIANA"},{"lat":30.67096,"lon":75.67143,"detection_":8.0,"radiative_":9.5,"sat":"npp","state":"PB","district":"LUDHIANA"},{"lat":30.52122,"lon":75.6681,"detection_":8.0,"radiative_":2.8,"sat":"npp","state":"PB","district":"BARNALA"},{"lat":31.10797,"lon":75.85614,"detection_":8.0,"radiative_":4.9,"sat":"npp","state":"PB","district":"JALANDHAR"},{"lat":30.69321,"lon":76.32378,"detection_":8.0,"radiative_":7.3,"sat":"npp","state":"PB","district":"FATEHGARH SAHIB"},{"lat":32.27966,"lon":75.36468,"detection_":8.0,"radiative_":4.3,"sat":"npp","state":"PB","district":"PATHANKOT"},{"lat":30.42329,"lon":76.50786,"detection_":8.0,"radiative_":20.8,"sat":"npp","state":"PB","district":"PATIALA"},{"lat":30.28508,"lon":75.32761,"detection_":8.0,"radiative_":10.2,"sat":"npp","state":"PB","district":"BATHINDA"},{"lat":31.36778,"lon":74.56288,"detection_":8.0,"radiative_":7.6,"sat":"npp","state":"PB","district":"TARN TARAN"},{"lat":30.3933,"lon":74.84002,"detection_":8.0,"radiative_":1.3,"sat":"npp","state":"PB","district":"FARIDKOT"}],"districts":{"AMRITSAR":0,"BARNALA":1,"BATHINDA":1,"FARIDKOT":1,"FATEHGARH SAHIB":1,"FAZILKA":0,"FIROZPUR":1,"GURDASPUR":3,"HOSHIARPUR":0,"JALANDHAR":1,"KAPURTHALA":1,"LUDHIANA":2,"MANSA":0,"MOGA":0,"MUKTSAR":0,"SBS NAGAR":0,"PATHANKOT":1,"PATIALA":1,"RUPNAGAR":0,"SANGRUR":0,"SAS NAGAR (MOHALI)":0,"TARN TARAN":1}}