{"last_update":"2:22 PM, 03 Nov 2025","total":12,"locations":[{"lat":30.0759,"lon":74.53568,"detection_":8.0,"radiative_":4.4,"sat":"npp","state":"PB","district":"MUKTSAR"},{"lat":29.87896,"lon":75.55167,"detection_":8.0,"radiative_":4.0,"sat":"npp","state":"PB","district":"MANSA"},{"lat":30.12799,"lon":75.9543,"detection_":8.0,"radiative_":3.6,"sat":"npp","state":"PB","district":"SANGRUR"},{"lat":30.45593,"lon":76.76602,"detection_":8.0,"radiative_":5.2,"sat":"npp","state":"PB","district":"SAS NAGAR (MOHALI)"},{"lat":31.61871,"lon":75.54629,"detection_":8.0,"radiative_":2.8,"sat":"npp","state":"PB","district":"KAPURTHALA"},{"lat":30.36267,"lon":74.48637,"detection_":8.0,"radiative_":5.9,"sat":"npp","state":"PB","district":"MUKTSAR"},{"lat":30.15501,"lon":74.9,"detection_":8.0,"radiative_":4.1,"sat":"npp","state":"PB","district":"BATHINDA"},{"lat":30.97265,"lon":75.1876,"detection_":8.0,"radiative_":7.5,"sat":"npp","state":"PB","district":"MOGA"},{"lat":31.14047,"lon":74.59875,"detection_":8.0,"radiative_":4.3,"sat":"npp","state":"PB","district":"TARN TARAN"},{"lat":29.77442,"lon":76.0801,"detection_":8.0,"radiative_":10.6,"sat":"npp","state":"PB","district":null},{"lat":29.94954,"lon":74.61265,"detection_":8.0,"radiative_":6.2,"sat":"npp","state":"PB","district":"MUKTSAR"},{"lat":30.19056,"lon":76.18367,"detection_":8.0,"radiative_":3.3,"sat":"npp","state":"PB","district":"PATIALA"}],"districts":{"AMRITSAR":0,"BARNALA":0,"BATHINDA":1,"FARIDKOT":0,"FATEHGARH SAHIB":0,"FAZILKA":0,"FIROZPUR":0,"GURDASPUR":0,"HOSHIARPUR":0,"JALANDHAR":0,"KAPURTHALA":1,"LUDHIANA":0,"MANSA":1,"MOGA":1,"MUKTSAR":3,"SBS NAGAR":0,"PATHANKOT":0,"PATIALA":1,"RUPNAGAR":0,"SANGRUR":1,"SAS NAGAR (MOHALI)":1,"TARN TARAN":1}}