{"last_update":"9:13 PM, 21 Mar 2025","total":9,"locations":[{"lat":31.10191,"lon":75.46654,"detection_":8.0,"radiative_":2.8,"sat":"npp","state":"PB","district":"JALANDHAR"},{"lat":31.60069,"lon":75.65244,"detection_":8.0,"radiative_":2.4,"sat":"npp","state":"PB","district":"JALANDHAR"},{"lat":31.70603,"lon":74.74944,"detection_":8.0,"radiative_":7.9,"sat":"npp","state":"PB","district":"AMRITSAR"},{"lat":31.88527,"lon":75.20842,"detection_":8.0,"radiative_":3.6,"sat":"npp","state":"PB","district":"GURDASPUR"},{"lat":31.604,"lon":75.65177,"detection_":8.0,"radiative_":2.4,"sat":"npp","state":"PB","district":"JALANDHAR"},{"lat":30.64794,"lon":76.04728,"detection_":8.0,"radiative_":2.9,"sat":"npp","state":"PB","district":"LUDHIANA"},{"lat":31.18342,"lon":75.51291,"detection_":8.0,"radiative_":2.3,"sat":"npp","state":"PB","district":"JALANDHAR"},{"lat":30.65242,"lon":74.79799,"detection_":8.0,"radiative_":5.9,"sat":"npp","state":"PB","district":"FARIDKOT"},{"lat":31.11715,"lon":76.03881,"detection_":8.0,"radiative_":21.2,"sat":"npp","state":"PB","district":"SBS NAGAR"}],"districts":{"AMRITSAR":1,"BARNALA":0,"BATHINDA":0,"FARIDKOT":1,"FATEHGARH SAHIB":0,"FAZILKA":0,"FIROZPUR":0,"GURDASPUR":1,"HOSHIARPUR":0,"JALANDHAR":4,"KAPURTHALA":0,"LUDHIANA":1,"MANSA":0,"MOGA":0,"MUKTSAR":0,"SBS NAGAR":1,"PATHANKOT":0,"PATIALA":0,"RUPNAGAR":0,"SANGRUR":0,"SAS NAGAR (MOHALI)":0,"TARN TARAN":0}}