{"last_update":"7:12 PM, 22 Nov 2025","total":9,"locations":[{"lat":30.303,"lon":74.013,"detection_":78.0,"radiative_":29.3,"sat":"mod","state":"PB","district":"FAZILKA"},{"lat":30.61,"lon":74.427,"detection_":63.0,"radiative_":11.2,"sat":"mod","state":"PB","district":"MUKTSAR"},{"lat":30.46931,"lon":75.84174,"detection_":8.0,"radiative_":4.8,"sat":"npp","state":"PB","district":"SANGRUR"},{"lat":30.01697,"lon":75.12597,"detection_":8.0,"radiative_":4.4,"sat":"npp","state":"PB","district":"BATHINDA"},{"lat":31.95019,"lon":75.36155,"detection_":8.0,"radiative_":3.2,"sat":"npp","state":"PB","district":"GURDASPUR"},{"lat":30.0207,"lon":74.56042,"detection_":8.0,"radiative_":5.2,"sat":"npp","state":"PB","district":"MUKTSAR"},{"lat":30.69349,"lon":76.08938,"detection_":8.0,"radiative_":2.2,"sat":"npp","state":"PB","district":"LUDHIANA"},{"lat":30.04473,"lon":74.94904,"detection_":8.0,"radiative_":2.8,"sat":"npp","state":"PB","district":"BATHINDA"},{"lat":30.06176,"lon":74.47113,"detection_":8.0,"radiative_":2.4,"sat":"npp","state":"PB","district":"MUKTSAR"}],"districts":{"AMRITSAR":0,"BARNALA":0,"BATHINDA":2,"FARIDKOT":0,"FATEHGARH SAHIB":0,"FAZILKA":1,"FIROZPUR":0,"GURDASPUR":1,"HOSHIARPUR":0,"JALANDHAR":0,"KAPURTHALA":0,"LUDHIANA":1,"MANSA":0,"MOGA":0,"MUKTSAR":3,"SBS NAGAR":0,"PATHANKOT":0,"PATIALA":0,"RUPNAGAR":0,"SANGRUR":1,"SAS NAGAR (MOHALI)":0,"TARN TARAN":0}}