{"last_update":"11:16 AM, 21 May 2025","total":6,"locations":[{"lat":30.41809,"lon":75.85402,"detection_":8.0,"radiative_":1.0,"sat":"npp","state":"PB","district":"SANGRUR"},{"lat":30.79803,"lon":75.00338,"detection_":8.0,"radiative_":2.7,"sat":"npp","state":"PB","district":"MOGA"},{"lat":31.08983,"lon":75.60318,"detection_":8.0,"radiative_":0.9,"sat":"npp","state":"PB","district":"JALANDHAR"},{"lat":31.08917,"lon":75.6034,"detection_":8.0,"radiative_":1.3,"sat":"npp","state":"PB","district":"JALANDHAR"},{"lat":31.22994,"lon":75.95029,"detection_":8.0,"radiative_":1.1,"sat":"npp","state":"PB","district":"SBS NAGAR"},{"lat":30.24888,"lon":76.60171,"detection_":8.0,"radiative_":0.5,"sat":"npp","state":"PB","district":"PATIALA"}],"districts":{"AMRITSAR":0,"BARNALA":0,"BATHINDA":0,"FARIDKOT":0,"FATEHGARH SAHIB":0,"FAZILKA":0,"FIROZPUR":0,"GURDASPUR":0,"HOSHIARPUR":0,"JALANDHAR":2,"KAPURTHALA":0,"LUDHIANA":0,"MANSA":0,"MOGA":1,"MUKTSAR":0,"SBS NAGAR":1,"PATHANKOT":0,"PATIALA":1,"RUPNAGAR":0,"SANGRUR":1,"SAS NAGAR (MOHALI)":0,"TARN TARAN":0}}