{"last_update":"6:28 PM, 23 Feb 2025","total":8,"locations":[{"lat":31.25246,"lon":75.86336,"detection_":8.0,"radiative_":3.2,"sat":"npp","state":"PB","district":"SBS NAGAR"},{"lat":32.06018,"lon":75.36569,"detection_":8.0,"radiative_":2.3,"sat":"npp","state":"PB","district":"GURDASPUR"},{"lat":30.684,"lon":75.95296,"detection_":8.0,"radiative_":3.2,"sat":"npp","state":"PB","district":"LUDHIANA"},{"lat":31.92713,"lon":74.73898,"detection_":8.0,"radiative_":1.5,"sat":"npp","state":"PB","district":"AMRITSAR"},{"lat":31.62581,"lon":75.52336,"detection_":8.0,"radiative_":5.5,"sat":"npp","state":"PB","district":"KAPURTHALA"},{"lat":30.68476,"lon":75.95734,"detection_":8.0,"radiative_":3.2,"sat":"npp","state":"PB","district":"LUDHIANA"},{"lat":31.09744,"lon":76.18929,"detection_":8.0,"radiative_":2.6,"sat":"npp","state":"PB","district":"SBS NAGAR"},{"lat":31.78443,"lon":75.63581,"detection_":8.0,"radiative_":2.6,"sat":"npp","state":"PB","district":"HOSHIARPUR"}],"districts":{"AMRITSAR":1,"BARNALA":0,"BATHINDA":0,"FARIDKOT":0,"FATEHGARH SAHIB":0,"FAZILKA":0,"FIROZPUR":0,"GURDASPUR":1,"HOSHIARPUR":1,"JALANDHAR":0,"KAPURTHALA":1,"LUDHIANA":2,"MANSA":0,"MOGA":0,"MUKTSAR":0,"SBS NAGAR":2,"PATHANKOT":0,"PATIALA":0,"RUPNAGAR":0,"SANGRUR":0,"SAS NAGAR (MOHALI)":0,"TARN TARAN":0}}