{"last_update":"7:12 PM, 21 Sep 2025","total":8,"locations":[{"lat":31.128,"lon":75.184,"detection_":48.0,"radiative_":5.3,"sat":"mod","state":"PB","district":"JALANDHAR"},{"lat":31.622,"lon":75.153,"detection_":57.0,"radiative_":6.0,"sat":"mod","state":"PB","district":"AMRITSAR"},{"lat":31.61,"lon":75.07,"detection_":80.0,"radiative_":18.1,"sat":"mod","state":"PB","district":"AMRITSAR"},{"lat":31.642,"lon":75.026,"detection_":68.0,"radiative_":9.0,"sat":"mod","state":"PB","district":"AMRITSAR"},{"lat":30.23055,"lon":75.59434,"detection_":8.0,"radiative_":8.1,"sat":"npp","state":"PB","district":"BARNALA"},{"lat":30.22981,"lon":75.59606,"detection_":8.0,"radiative_":7.5,"sat":"npp","state":"PB","district":"BARNALA"},{"lat":30.5066,"lon":75.86217,"detection_":8.0,"radiative_":3.0,"sat":"npp","state":"PB","district":"SANGRUR"},{"lat":30.61122,"lon":76.82117,"detection_":8.0,"radiative_":3.9,"sat":"npp","state":"PB","district":"SAS NAGAR (MOHALI)"}],"districts":{"AMRITSAR":3,"BARNALA":2,"BATHINDA":0,"FARIDKOT":0,"FATEHGARH SAHIB":0,"FAZILKA":0,"FIROZPUR":0,"GURDASPUR":0,"HOSHIARPUR":0,"JALANDHAR":1,"KAPURTHALA":0,"LUDHIANA":0,"MANSA":0,"MOGA":0,"MUKTSAR":0,"SBS NAGAR":0,"PATHANKOT":0,"PATIALA":0,"RUPNAGAR":0,"SANGRUR":1,"SAS NAGAR (MOHALI)":1,"TARN TARAN":0}}