{"last_update":"8:17 PM, 25 Sep 2025","total":9,"locations":[{"lat":30.46721,"lon":76.68563,"detection_":8.0,"radiative_":4.4,"sat":"npp","state":"PB","district":"PATIALA"},{"lat":31.6327,"lon":75.0121,"detection_":8.0,"radiative_":5.2,"sat":"npp","state":"PB","district":"AMRITSAR"},{"lat":31.08815,"lon":75.17635,"detection_":8.0,"radiative_":7.3,"sat":"npp","state":"PB","district":"JALANDHAR"},{"lat":31.08724,"lon":75.17202,"detection_":8.0,"radiative_":4.6,"sat":"npp","state":"PB","district":"JALANDHAR"},{"lat":29.84328,"lon":76.09973,"detection_":8.0,"radiative_":2.6,"sat":"npp","state":"PB","district":"SANGRUR"},{"lat":31.47735,"lon":74.8549,"detection_":8.0,"radiative_":6.9,"sat":"npp","state":"PB","district":"TARN TARAN"},{"lat":30.47104,"lon":76.68464,"detection_":8.0,"radiative_":3.5,"sat":"npp","state":"PB","district":"PATIALA"},{"lat":31.6362,"lon":75.07059,"detection_":8.0,"radiative_":3.0,"sat":"npp","state":"PB","district":"AMRITSAR"},{"lat":31.6318,"lon":75.00777,"detection_":8.0,"radiative_":4.2,"sat":"npp","state":"PB","district":"AMRITSAR"}],"districts":{"AMRITSAR":3,"BARNALA":0,"BATHINDA":0,"FARIDKOT":0,"FATEHGARH SAHIB":0,"FAZILKA":0,"FIROZPUR":0,"GURDASPUR":0,"HOSHIARPUR":0,"JALANDHAR":2,"KAPURTHALA":0,"LUDHIANA":0,"MANSA":0,"MOGA":0,"MUKTSAR":0,"SBS NAGAR":0,"PATHANKOT":0,"PATIALA":2,"RUPNAGAR":0,"SANGRUR":1,"SAS NAGAR (MOHALI)":0,"TARN TARAN":1}}