{"last_update":"6:31 PM, 21 Jan 2025","total":5,"locations":[{"lat":31.30686,"lon":75.75963,"detection_":8.0,"radiative_":2.2,"sat":"npp","state":"PB","district":"KAPURTHALA"},{"lat":31.41589,"lon":75.18082,"detection_":8.0,"radiative_":2.3,"sat":"npp","state":"PB","district":"TARN TARAN"},{"lat":31.0167,"lon":76.00921,"detection_":8.0,"radiative_":2.2,"sat":"npp","state":"PB","district":"SBS NAGAR"},{"lat":31.09375,"lon":75.17059,"detection_":8.0,"radiative_":2.9,"sat":"npp","state":"PB","district":"JALANDHAR"},{"lat":30.65753,"lon":76.52602,"detection_":8.0,"radiative_":3.4,"sat":"npp","state":"PB","district":"FATEHGARH SAHIB"}],"districts":{"AMRITSAR":0,"BARNALA":0,"BATHINDA":0,"FARIDKOT":0,"FATEHGARH SAHIB":1,"FAZILKA":0,"FIROZPUR":0,"GURDASPUR":0,"HOSHIARPUR":0,"JALANDHAR":1,"KAPURTHALA":1,"LUDHIANA":0,"MANSA":0,"MOGA":0,"MUKTSAR":0,"SBS NAGAR":1,"PATHANKOT":0,"PATIALA":0,"RUPNAGAR":0,"SANGRUR":0,"SAS NAGAR (MOHALI)":0,"TARN TARAN":1}}