{"last_update":"5:13 AM, 17 May 2025","total":14,"locations":[{"lat":30.0407,"lon":75.53433,"detection_":8.0,"radiative_":8.8,"sat":"npp","state":"PB","district":"MANSA"},{"lat":30.57434,"lon":75.03088,"detection_":8.0,"radiative_":0.7,"sat":"npp","state":"PB","district":"MOGA"},{"lat":32.05581,"lon":75.23471,"detection_":8.0,"radiative_":0.5,"sat":"npp","state":"PB","district":"GURDASPUR"},{"lat":31.58805,"lon":74.77702,"detection_":8.0,"radiative_":2.6,"sat":"npp","state":"PB","district":"AMRITSAR"},{"lat":32.05878,"lon":75.22883,"detection_":8.0,"radiative_":0.8,"sat":"npp","state":"PB","district":"GURDASPUR"},{"lat":31.14322,"lon":75.89287,"detection_":8.0,"radiative_":1.2,"sat":"npp","state":"PB","district":"JALANDHAR"},{"lat":31.00782,"lon":74.66743,"detection_":8.0,"radiative_":2.5,"sat":"npp","state":"PB","district":"FIROZPUR"},{"lat":31.20917,"lon":76.0061,"detection_":8.0,"radiative_":1.0,"sat":"npp","state":"PB","district":"SBS NAGAR"},{"lat":32.05693,"lon":75.22969,"detection_":8.0,"radiative_":0.5,"sat":"npp","state":"PB","district":"GURDASPUR"},{"lat":31.96649,"lon":75.18457,"detection_":8.0,"radiative_":1.5,"sat":"npp","state":"PB","district":"GURDASPUR"},{"lat":31.21315,"lon":76.00675,"detection_":8.0,"radiative_":2.8,"sat":"npp","state":"PB","district":"SBS NAGAR"},{"lat":32.04651,"lon":74.88467,"detection_":8.0,"radiative_":0.8,"sat":"npp","state":"PB","district":"AMRITSAR"},{"lat":31.21379,"lon":76.00753,"detection_":8.0,"radiative_":2.2,"sat":"npp","state":"PB","district":"SBS NAGAR"},{"lat":30.57878,"lon":75.0322,"detection_":8.0,"radiative_":0.7,"sat":"npp","state":"PB","district":"MOGA"}],"districts":{"AMRITSAR":2,"BARNALA":0,"BATHINDA":0,"FARIDKOT":0,"FATEHGARH SAHIB":0,"FAZILKA":0,"FIROZPUR":1,"GURDASPUR":4,"HOSHIARPUR":0,"JALANDHAR":1,"KAPURTHALA":0,"LUDHIANA":0,"MANSA":1,"MOGA":2,"MUKTSAR":0,"SBS NAGAR":3,"PATHANKOT":0,"PATIALA":0,"RUPNAGAR":0,"SANGRUR":0,"SAS NAGAR (MOHALI)":0,"TARN TARAN":0}}