{"last_update":"2:16 PM, 26 Apr 2025","total":10,"locations":[{"lat":30.31,"lon":76.314,"detection_":79.0,"radiative_":11.3,"sat":"mod","state":"PB","district":"PATIALA"},{"lat":31.98818,"lon":75.63204,"detection_":8.0,"radiative_":0.8,"sat":"npp","state":"PB","district":"HOSHIARPUR"},{"lat":30.32304,"lon":75.19564,"detection_":8.0,"radiative_":1.3,"sat":"npp","state":"PB","district":"BATHINDA"},{"lat":31.56626,"lon":75.48743,"detection_":8.0,"radiative_":2.0,"sat":"npp","state":"PB","district":"KAPURTHALA"},{"lat":31.56218,"lon":75.48626,"detection_":8.0,"radiative_":2.0,"sat":"npp","state":"PB","district":"KAPURTHALA"},{"lat":30.74192,"lon":74.92619,"detection_":8.0,"radiative_":1.4,"sat":"npp","state":"PB","district":"MOGA"},{"lat":31.58074,"lon":75.50073,"detection_":8.0,"radiative_":0.9,"sat":"npp","state":"PB","district":"KAPURTHALA"},{"lat":30.49899,"lon":74.1571,"detection_":8.0,"radiative_":1.1,"sat":"npp","state":"PB","district":"FAZILKA"},{"lat":30.30912,"lon":76.31001,"detection_":8.0,"radiative_":8.1,"sat":"npp","state":"PB","district":"PATIALA"},{"lat":30.40482,"lon":75.41113,"detection_":8.0,"radiative_":0.9,"sat":"npp","state":"PB","district":"BARNALA"}],"districts":{"AMRITSAR":0,"BARNALA":1,"BATHINDA":1,"FARIDKOT":0,"FATEHGARH SAHIB":0,"FAZILKA":1,"FIROZPUR":0,"GURDASPUR":0,"HOSHIARPUR":1,"JALANDHAR":0,"KAPURTHALA":3,"LUDHIANA":0,"MANSA":0,"MOGA":1,"MUKTSAR":0,"SBS NAGAR":0,"PATHANKOT":0,"PATIALA":2,"RUPNAGAR":0,"SANGRUR":0,"SAS NAGAR (MOHALI)":0,"TARN TARAN":0}}