{"last_update":"3:26 PM, 14 Feb 2026","total":6,"locations":[{"lat":30.61456,"lon":76.48644,"detection_":8.0,"radiative_":1.8,"sat":"npp","state":"PB","district":"FATEHGARH SAHIB"},{"lat":30.6092,"lon":76.86359,"detection_":8.0,"radiative_":3.2,"sat":"npp","state":"PB","district":"SAS NAGAR (MOHALI)"},{"lat":31.15881,"lon":75.94255,"detection_":8.0,"radiative_":1.9,"sat":"npp","state":"PB","district":"SBS NAGAR"},{"lat":31.67241,"lon":75.09013,"detection_":8.0,"radiative_":3.9,"sat":"npp","state":"PB","district":"AMRITSAR"},{"lat":31.93505,"lon":75.38405,"detection_":8.0,"radiative_":3.1,"sat":"npp","state":"PB","district":"GURDASPUR"},{"lat":31.72646,"lon":75.52495,"detection_":8.0,"radiative_":1.4,"sat":"npp","state":"PB","district":"HOSHIARPUR"}],"districts":{"AMRITSAR":1,"BARNALA":0,"BATHINDA":0,"FARIDKOT":0,"FATEHGARH SAHIB":1,"FAZILKA":0,"FIROZPUR":0,"GURDASPUR":1,"HOSHIARPUR":1,"JALANDHAR":0,"KAPURTHALA":0,"LUDHIANA":0,"MANSA":0,"MOGA":0,"MUKTSAR":0,"SBS NAGAR":1,"PATHANKOT":0,"PATIALA":0,"RUPNAGAR":0,"SANGRUR":0,"SAS NAGAR (MOHALI)":1,"TARN TARAN":0}}