{"last_update":"8:59 PM, 15 Jun 2026","total":10,"locations":[{"lat":31.32511,"lon":75.21822,"detection_":8.0,"radiative_":5.5,"sat":"npp","state":"PB","district":"KAPURTHALA"},{"lat":31.62393,"lon":75.16922,"detection_":8.0,"radiative_":3.1,"sat":"npp","state":"PB","district":"AMRITSAR"},{"lat":31.463,"lon":75.20427,"detection_":8.0,"radiative_":2.9,"sat":"npp","state":"PB","district":"TARN TARAN"},{"lat":31.66698,"lon":75.02837,"detection_":8.0,"radiative_":2.6,"sat":"npp","state":"PB","district":"AMRITSAR"},{"lat":31.77893,"lon":75.21664,"detection_":8.0,"radiative_":3.2,"sat":"npp","state":"PB","district":"GURDASPUR"},{"lat":31.328,"lon":75.22395,"detection_":8.0,"radiative_":3.8,"sat":"npp","state":"PB","district":"KAPURTHALA"},{"lat":30.65238,"lon":76.00306,"detection_":8.0,"radiative_":2.7,"sat":"npp","state":"PB","district":"LUDHIANA"},{"lat":30.65361,"lon":76.00246,"detection_":8.0,"radiative_":2.5,"sat":"npp","state":"PB","district":"LUDHIANA"},{"lat":31.62644,"lon":75.16831,"detection_":8.0,"radiative_":1.5,"sat":"npp","state":"PB","district":"AMRITSAR"},{"lat":31.14739,"lon":75.27193,"detection_":9.0,"radiative_":21.7,"sat":"npp","state":"PB","district":"JALANDHAR"}],"districts":{"AMRITSAR":3,"BARNALA":0,"BATHINDA":0,"FARIDKOT":0,"FATEHGARH SAHIB":0,"FAZILKA":0,"FIROZPUR":0,"GURDASPUR":1,"HOSHIARPUR":0,"JALANDHAR":1,"KAPURTHALA":2,"LUDHIANA":2,"MANSA":0,"MOGA":0,"MUKTSAR":0,"SBS NAGAR":0,"PATHANKOT":0,"PATIALA":0,"RUPNAGAR":0,"SANGRUR":0,"SAS NAGAR (MOHALI)":0,"TARN TARAN":1}}