{"last_update":"4:54 PM, 16 Feb 2026","total":7,"locations":[{"lat":31.74945,"lon":75.52221,"detection_":8.0,"radiative_":4.0,"sat":"npp","state":"PB","district":"GURDASPUR"},{"lat":31.62977,"lon":75.6647,"detection_":8.0,"radiative_":2.8,"sat":"npp","state":"PB","district":"HOSHIARPUR"},{"lat":31.60123,"lon":74.59686,"detection_":8.0,"radiative_":2.3,"sat":"npp","state":"PB","district":"AMRITSAR"},{"lat":30.56112,"lon":76.10957,"detection_":8.0,"radiative_":2.7,"sat":"npp","state":"PB","district":"FATEHGARH SAHIB"},{"lat":31.74056,"lon":75.4991,"detection_":8.0,"radiative_":16.3,"sat":"npp","state":"PB","district":"GURDASPUR"},{"lat":31.82327,"lon":75.5992,"detection_":8.0,"radiative_":7.8,"sat":"npp","state":"PB","district":"HOSHIARPUR"},{"lat":31.11431,"lon":75.55141,"detection_":8.0,"radiative_":6.5,"sat":"npp","state":"PB","district":"JALANDHAR"}],"districts":{"AMRITSAR":1,"BARNALA":0,"BATHINDA":0,"FARIDKOT":0,"FATEHGARH SAHIB":1,"FAZILKA":0,"FIROZPUR":0,"GURDASPUR":2,"HOSHIARPUR":2,"JALANDHAR":1,"KAPURTHALA":0,"LUDHIANA":0,"MANSA":0,"MOGA":0,"MUKTSAR":0,"SBS NAGAR":0,"PATHANKOT":0,"PATIALA":0,"RUPNAGAR":0,"SANGRUR":0,"SAS NAGAR (MOHALI)":0,"TARN TARAN":0}}