{"last_update":"4:22 PM, 28 Feb 2026","total":11,"locations":[{"lat":31.7952,"lon":75.04016,"detection_":8.0,"radiative_":5.5,"sat":"npp","state":"PB","district":"AMRITSAR"},{"lat":31.95203,"lon":75.5677,"detection_":8.0,"radiative_":3.2,"sat":"npp","state":"PB","district":"HOSHIARPUR"},{"lat":30.99075,"lon":76.44621,"detection_":8.0,"radiative_":1.9,"sat":"npp","state":"PB","district":"SBS NAGAR"},{"lat":31.29572,"lon":75.76014,"detection_":8.0,"radiative_":6.0,"sat":"npp","state":"PB","district":"KAPURTHALA"},{"lat":30.52941,"lon":75.99218,"detection_":8.0,"radiative_":6.0,"sat":"npp","state":"PB","district":"SANGRUR"},{"lat":30.86681,"lon":76.38602,"detection_":8.0,"radiative_":4.3,"sat":"npp","state":"PB","district":"RUPNAGAR"},{"lat":31.75198,"lon":75.57153,"detection_":8.0,"radiative_":1.6,"sat":"npp","state":"PB","district":"HOSHIARPUR"},{"lat":31.04751,"lon":75.89422,"detection_":8.0,"radiative_":2.3,"sat":"npp","state":"PB","district":"JALANDHAR"},{"lat":31.87976,"lon":75.59711,"detection_":8.0,"radiative_":3.5,"sat":"npp","state":"PB","district":"HOSHIARPUR"},{"lat":32.12491,"lon":75.42838,"detection_":8.0,"radiative_":3.0,"sat":"npp","state":"PB","district":"GURDASPUR"},{"lat":31.79826,"lon":75.04288,"detection_":8.0,"radiative_":8.1,"sat":"npp","state":"PB","district":"AMRITSAR"}],"districts":{"AMRITSAR":2,"BARNALA":0,"BATHINDA":0,"FARIDKOT":0,"FATEHGARH SAHIB":0,"FAZILKA":0,"FIROZPUR":0,"GURDASPUR":1,"HOSHIARPUR":3,"JALANDHAR":1,"KAPURTHALA":1,"LUDHIANA":0,"MANSA":0,"MOGA":0,"MUKTSAR":0,"SBS NAGAR":1,"PATHANKOT":0,"PATIALA":0,"RUPNAGAR":1,"SANGRUR":1,"SAS NAGAR (MOHALI)":0,"TARN TARAN":0}}