{"last_update":"6:31 PM, 14 Nov 2023","total":10,"locations":[{"lat":29.784,"lon":77.012,"detection_":63.0,"radiative_":6.0,"sat":"mod","state":"HR","district":"KARNAL"},{"lat":28.89796,"lon":77.16454,"detection_":8.0,"radiative_":2.6,"sat":"npp","state":"HR","district":"SONIPAT"},{"lat":29.56927,"lon":76.97593,"detection_":8.0,"radiative_":2.8,"sat":"npp","state":"HR","district":"KARNAL"},{"lat":29.59201,"lon":77.01299,"detection_":8.0,"radiative_":3.8,"sat":"npp","state":"HR","district":"KARNAL"},{"lat":29.72527,"lon":76.82085,"detection_":8.0,"radiative_":8.4,"sat":"npp","state":"HR","district":"KARNAL"},{"lat":29.78042,"lon":77.05261,"detection_":8.0,"radiative_":5.4,"sat":"npp","state":"HR","district":"KARNAL"},{"lat":29.79853,"lon":76.99906,"detection_":8.0,"radiative_":3.9,"sat":"npp","state":"HR","district":"KARNAL"},{"lat":30.11444,"lon":76.64909,"detection_":8.0,"radiative_":2.9,"sat":"npp","state":"HR","district":"KURUKSHETRA"},{"lat":30.251,"lon":76.86289,"detection_":8.0,"radiative_":2.9,"sat":"npp","state":"HR","district":"AMBALA"},{"lat":29.12237,"lon":75.77786,"detection_":8.0,"radiative_":2.0,"sat":"npp","state":"HR","district":"HISAR"}],"districts":{"AMBALA":1,"BHIWANI":0,"FARIDABAD":0,"FATEHABAD":0,"GURUGRAM":0,"HISAR":1,"JHAJJAR":0,"JIND":0,"KAITHAL":0,"KARNAL":6,"KURUKSHETRA":1,"MAHENDRAGARH":0,"MEWAT":0,"PALWAL":0,"PANCHKULA":0,"PANIPAT":0,"REWARI":0,"ROHTAK":0,"SIRSA":0,"SONIPAT":1,"YAMUNANAGAR":0,"CHARKHI DADRI":0}}