{"last_update":"6:31 PM, 14 Nov 2023","total":16,"locations":[{"lat":29.714,"lon":76.897,"detection_":60.0,"radiative_":6.8,"sat":"mod","state":"HR","district":"KARNAL"},{"lat":29.736,"lon":76.532,"detection_":39.0,"radiative_":4.6,"sat":"mod","state":"HR","district":"KAITHAL"},{"lat":30.45899,"lon":77.05643,"detection_":8.0,"radiative_":1.8,"sat":"npp","state":"HR","district":"AMBALA"},{"lat":29.58141,"lon":77.00698,"detection_":8.0,"radiative_":0.9,"sat":"npp","state":"HR","district":"KARNAL"},{"lat":29.2793,"lon":76.90887,"detection_":8.0,"radiative_":4.8,"sat":"npp","state":"HR","district":"PANIPAT"},{"lat":29.45147,"lon":77.06276,"detection_":8.0,"radiative_":2.6,"sat":"npp","state":"HR","district":"PANIPAT"},{"lat":29.65648,"lon":77.0136,"detection_":8.0,"radiative_":3.2,"sat":"npp","state":"HR","district":"KARNAL"},{"lat":29.61843,"lon":76.81795,"detection_":8.0,"radiative_":3.2,"sat":"npp","state":"HR","district":"KARNAL"},{"lat":29.74993,"lon":77.01659,"detection_":8.0,"radiative_":4.2,"sat":"npp","state":"HR","district":"KARNAL"},{"lat":29.59887,"lon":75.91402,"detection_":8.0,"radiative_":1.4,"sat":"npp","state":"HR","district":"FATEHABAD"},{"lat":29.67019,"lon":75.9579,"detection_":8.0,"radiative_":2.6,"sat":"npp","state":"HR","district":"JIND"},{"lat":29.93807,"lon":77.15575,"detection_":8.0,"radiative_":7.0,"sat":"npp","state":"HR","district":"KARNAL"},{"lat":29.72295,"lon":75.94408,"detection_":8.0,"radiative_":4.3,"sat":"npp","state":"HR","district":"FATEHABAD"},{"lat":29.94787,"lon":77.03943,"detection_":8.0,"radiative_":4.3,"sat":"npp","state":"HR","district":"KARNAL"},{"lat":30.02848,"lon":77.26632,"detection_":8.0,"radiative_":2.8,"sat":"npp","state":"HR","district":"YAMUNANAGAR"},{"lat":30.00299,"lon":77.02988,"detection_":8.0,"radiative_":6.1,"sat":"npp","state":"HR","district":"KURUKSHETRA"}],"districts":{"AMBALA":1,"BHIWANI":0,"FARIDABAD":0,"FATEHABAD":2,"GURUGRAM":0,"HISAR":0,"JHAJJAR":0,"JIND":1,"KAITHAL":1,"KARNAL":7,"KURUKSHETRA":1,"MAHENDRAGARH":0,"MEWAT":0,"PALWAL":0,"PANCHKULA":0,"PANIPAT":2,"REWARI":0,"ROHTAK":0,"SIRSA":0,"SONIPAT":0,"YAMUNANAGAR":1,"CHARKHI DADRI":0}}