{"last_update":"6:34 PM, 14 Nov 2023","total":10,"locations":[{"lat":28.75,"lon":76.447,"detection_":38.0,"radiative_":7.8,"sat":"mod","state":"HR","district":"ROHTAK"},{"lat":30.044,"lon":77.255,"detection_":59.0,"radiative_":5.9,"sat":"mod","state":"HR","district":"YAMUNANAGAR"},{"lat":29.33014,"lon":76.85314,"detection_":8.0,"radiative_":1.3,"sat":"npp","state":"HR","district":"PANIPAT"},{"lat":30.37679,"lon":77.2757,"detection_":8.0,"radiative_":4.1,"sat":"npp","state":"HR","district":"YAMUNANAGAR"},{"lat":28.95131,"lon":76.76523,"detection_":8.0,"radiative_":3.4,"sat":"npp","state":"HR","district":"ROHTAK"},{"lat":29.08344,"lon":76.18285,"detection_":8.0,"radiative_":5.5,"sat":"npp","state":"HR","district":"HISAR"},{"lat":29.79107,"lon":76.55602,"detection_":8.0,"radiative_":10.5,"sat":"npp","state":"HR","district":"KAITHAL"},{"lat":29.19439,"lon":76.35872,"detection_":8.0,"radiative_":2.1,"sat":"npp","state":"HR","district":"JIND"},{"lat":28.89466,"lon":76.99095,"detection_":8.0,"radiative_":1.6,"sat":"npp","state":"HR","district":"SONIPAT"},{"lat":29.40779,"lon":76.91492,"detection_":8.0,"radiative_":3.7,"sat":"npp","state":"HR","district":"PANIPAT"}],"districts":{"AMBALA":0,"BHIWANI":0,"FARIDABAD":0,"FATEHABAD":0,"GURUGRAM":0,"HISAR":1,"JHAJJAR":0,"JIND":1,"KAITHAL":1,"KARNAL":0,"KURUKSHETRA":0,"MAHENDRAGARH":0,"MEWAT":0,"PALWAL":0,"PANCHKULA":0,"PANIPAT":2,"REWARI":0,"ROHTAK":2,"SIRSA":0,"SONIPAT":1,"YAMUNANAGAR":2,"CHARKHI DADRI":0}}