{"last_update":"6:35 PM, 14 Nov 2023","total":9,"locations":[{"lat":29.00051,"lon":76.52452,"detection_":8.0,"radiative_":3.0,"sat":"npp","state":"HR","district":"ROHTAK"},{"lat":28.91198,"lon":76.79309,"detection_":8.0,"radiative_":1.5,"sat":"npp","state":"HR","district":"ROHTAK"},{"lat":30.15398,"lon":77.191,"detection_":8.0,"radiative_":2.0,"sat":"npp","state":"HR","district":"YAMUNANAGAR"},{"lat":30.02573,"lon":77.19281,"detection_":8.0,"radiative_":6.1,"sat":"npp","state":"HR","district":"YAMUNANAGAR"},{"lat":30.02607,"lon":77.02343,"detection_":8.0,"radiative_":1.9,"sat":"npp","state":"HR","district":"KURUKSHETRA"},{"lat":29.03751,"lon":77.05793,"detection_":8.0,"radiative_":2.0,"sat":"npp","state":"HR","district":"SONIPAT"},{"lat":28.99698,"lon":76.59533,"detection_":8.0,"radiative_":0.7,"sat":"npp","state":"HR","district":"ROHTAK"},{"lat":29.76365,"lon":76.59162,"detection_":8.0,"radiative_":3.5,"sat":"npp","state":"HR","district":"KAITHAL"},{"lat":29.9143,"lon":76.95029,"detection_":8.0,"radiative_":3.0,"sat":"npp","state":"HR","district":"KURUKSHETRA"}],"districts":{"AMBALA":0,"BHIWANI":0,"FARIDABAD":0,"FATEHABAD":0,"GURUGRAM":0,"HISAR":0,"JHAJJAR":0,"JIND":0,"KAITHAL":1,"KARNAL":0,"KURUKSHETRA":2,"MAHENDRAGARH":0,"MEWAT":0,"PALWAL":0,"PANCHKULA":0,"PANIPAT":0,"REWARI":0,"ROHTAK":3,"SIRSA":0,"SONIPAT":1,"YAMUNANAGAR":2,"CHARKHI DADRI":0}}