{"last_update":"6:34 PM, 14 Nov 2023","total":10,"locations":[{"lat":29.349,"lon":76.554,"detection_":59.0,"radiative_":10.6,"sat":"mod","state":"HR","district":"JIND"},{"lat":29.44735,"lon":76.68497,"detection_":8.0,"radiative_":2.2,"sat":"npp","state":"HR","district":"JIND"},{"lat":29.89503,"lon":77.02072,"detection_":8.0,"radiative_":2.8,"sat":"npp","state":"HR","district":"KARNAL"},{"lat":29.95414,"lon":77.10677,"detection_":8.0,"radiative_":3.1,"sat":"npp","state":"HR","district":"KARNAL"},{"lat":29.22652,"lon":76.73324,"detection_":8.0,"radiative_":3.1,"sat":"npp","state":"HR","district":"SONIPAT"},{"lat":30.10466,"lon":76.43398,"detection_":8.0,"radiative_":2.2,"sat":"npp","state":"HR","district":"KAITHAL"},{"lat":29.31987,"lon":76.97764,"detection_":8.0,"radiative_":4.6,"sat":"npp","state":"HR","district":"PANIPAT"},{"lat":30.06399,"lon":77.27969,"detection_":8.0,"radiative_":3.1,"sat":"npp","state":"HR","district":"YAMUNANAGAR"},{"lat":30.18717,"lon":77.21537,"detection_":8.0,"radiative_":4.2,"sat":"npp","state":"HR","district":"YAMUNANAGAR"},{"lat":30.25755,"lon":77.40942,"detection_":8.0,"radiative_":2.0,"sat":"npp","state":"HR","district":"YAMUNANAGAR"}],"districts":{"AMBALA":0,"BHIWANI":0,"FARIDABAD":0,"FATEHABAD":0,"GURUGRAM":0,"HISAR":0,"JHAJJAR":0,"JIND":2,"KAITHAL":1,"KARNAL":2,"KURUKSHETRA":0,"MAHENDRAGARH":0,"MEWAT":0,"PALWAL":0,"PANCHKULA":0,"PANIPAT":1,"REWARI":0,"ROHTAK":0,"SIRSA":0,"SONIPAT":1,"YAMUNANAGAR":3,"CHARKHI DADRI":0}}