{"last_update":"6:34 PM, 14 Nov 2023","total":13,"locations":[{"lat":30.4295,"lon":77.2633,"detection_":8.0,"radiative_":3.4,"sat":"npp","state":"HR","district":"YAMUNANAGAR"},{"lat":30.29828,"lon":77.07411,"detection_":8.0,"radiative_":2.5,"sat":"npp","state":"HR","district":"AMBALA"},{"lat":29.5719,"lon":74.58799,"detection_":8.0,"radiative_":5.1,"sat":"npp","state":"HR","district":"SIRSA"},{"lat":29.52076,"lon":75.13824,"detection_":8.0,"radiative_":1.3,"sat":"npp","state":"HR","district":"SIRSA"},{"lat":29.56168,"lon":74.61001,"detection_":8.0,"radiative_":4.6,"sat":"npp","state":"HR","district":"SIRSA"},{"lat":29.48402,"lon":76.5095,"detection_":8.0,"radiative_":2.0,"sat":"npp","state":"HR","district":"KARNAL"},{"lat":30.16072,"lon":76.95675,"detection_":8.0,"radiative_":2.9,"sat":"npp","state":"HR","district":"AMBALA"},{"lat":29.54225,"lon":76.05081,"detection_":8.0,"radiative_":2.1,"sat":"npp","state":"HR","district":"JIND"},{"lat":29.0046,"lon":76.39931,"detection_":8.0,"radiative_":10.8,"sat":"npp","state":"HR","district":"ROHTAK"},{"lat":29.04656,"lon":76.60299,"detection_":8.0,"radiative_":6.3,"sat":"npp","state":"HR","district":"ROHTAK"},{"lat":29.58607,"lon":75.36917,"detection_":8.0,"radiative_":2.7,"sat":"npp","state":"HR","district":"FATEHABAD"},{"lat":29.16856,"lon":76.90423,"detection_":8.0,"radiative_":4.7,"sat":"npp","state":"HR","district":"SONIPAT"},{"lat":28.34065,"lon":77.27086,"detection_":8.0,"radiative_":0.5,"sat":"npp","state":"HR","district":"FARIDABAD"}],"districts":{"AMBALA":2,"BHIWANI":0,"FARIDABAD":1,"FATEHABAD":1,"GURUGRAM":0,"HISAR":0,"JHAJJAR":0,"JIND":1,"KAITHAL":0,"KARNAL":1,"KURUKSHETRA":0,"MAHENDRAGARH":0,"MEWAT":0,"PALWAL":0,"PANCHKULA":0,"PANIPAT":0,"REWARI":0,"ROHTAK":2,"SIRSA":3,"SONIPAT":1,"YAMUNANAGAR":1,"CHARKHI DADRI":0}}