{"last_update":"6:40 PM, 14 Nov 2023","total":10,"locations":[{"lat":30.405,"lon":77.143,"detection_":67.0,"radiative_":6.9,"sat":"mod","state":"HR","district":"AMBALA"},{"lat":30.489,"lon":76.933,"detection_":76.0,"radiative_":13.2,"sat":"mod","state":"HR","district":"AMBALA"},{"lat":30.106,"lon":76.801,"detection_":61.0,"radiative_":6.1,"sat":"mod","state":"HR","district":"KURUKSHETRA"},{"lat":29.826,"lon":76.763,"detection_":40.0,"radiative_":4.5,"sat":"mod","state":"HR","district":"KARNAL"},{"lat":29.523,"lon":77.035,"detection_":64.0,"radiative_":8.0,"sat":"mod","state":"HR","district":"KARNAL"},{"lat":29.521,"lon":77.023,"detection_":73.0,"radiative_":14.1,"sat":"mod","state":"HR","district":"KARNAL"},{"lat":30.02407,"lon":77.02384,"detection_":8.0,"radiative_":2.7,"sat":"npp","state":"HR","district":"KURUKSHETRA"},{"lat":30.40187,"lon":77.16092,"detection_":8.0,"radiative_":5.1,"sat":"npp","state":"HR","district":"AMBALA"},{"lat":30.06151,"lon":77.28029,"detection_":8.0,"radiative_":8.7,"sat":"npp","state":"HR","district":"YAMUNANAGAR"},{"lat":28.2701,"lon":77.27554,"detection_":8.0,"radiative_":0.9,"sat":"npp","state":"HR","district":"FARIDABAD"}],"districts":{"AMBALA":3,"BHIWANI":0,"FARIDABAD":1,"FATEHABAD":0,"GURUGRAM":0,"HISAR":0,"JHAJJAR":0,"JIND":0,"KAITHAL":0,"KARNAL":3,"KURUKSHETRA":2,"MAHENDRAGARH":0,"MEWAT":0,"PALWAL":0,"PANCHKULA":0,"PANIPAT":0,"REWARI":0,"ROHTAK":0,"SIRSA":0,"SONIPAT":0,"YAMUNANAGAR":1,"CHARKHI DADRI":0}}