{"last_update":"6:42 PM, 14 Nov 2023","total":6,"locations":[{"lat":29.284,"lon":76.987,"detection_":59.0,"radiative_":6.2,"sat":"mod","state":"HR","district":"PANIPAT"},{"lat":29.906,"lon":74.928,"detection_":62.0,"radiative_":40.5,"sat":"mod","state":"HR","district":"SIRSA"},{"lat":29.90612,"lon":74.94708,"detection_":8.0,"radiative_":2.3,"sat":"npp","state":"HR","district":"SIRSA"},{"lat":30.07754,"lon":76.70031,"detection_":8.0,"radiative_":4.3,"sat":"npp","state":"HR","district":"KURUKSHETRA"},{"lat":29.03119,"lon":76.69627,"detection_":8.0,"radiative_":2.8,"sat":"npp","state":"HR","district":"ROHTAK"},{"lat":30.32104,"lon":77.05467,"detection_":8.0,"radiative_":2.9,"sat":"npp","state":"HR","district":"AMBALA"}],"districts":{"AMBALA":1,"BHIWANI":0,"FARIDABAD":0,"FATEHABAD":0,"GURUGRAM":0,"HISAR":0,"JHAJJAR":0,"JIND":0,"KAITHAL":0,"KARNAL":0,"KURUKSHETRA":1,"MAHENDRAGARH":0,"MEWAT":0,"PALWAL":0,"PANCHKULA":0,"PANIPAT":1,"REWARI":0,"ROHTAK":1,"SIRSA":2,"SONIPAT":0,"YAMUNANAGAR":0,"CHARKHI DADRI":0}}