{"last_update":"6:36 PM, 14 Nov 2023","total":13,"locations":[{"lat":29.17264,"lon":75.76071,"detection_":8.0,"radiative_":4.1,"sat":"npp","state":"HR","district":"HISAR"},{"lat":30.23837,"lon":77.34969,"detection_":8.0,"radiative_":1.8,"sat":"npp","state":"HR","district":"YAMUNANAGAR"},{"lat":30.00454,"lon":76.97517,"detection_":8.0,"radiative_":6.2,"sat":"npp","state":"HR","district":"KURUKSHETRA"},{"lat":30.15129,"lon":77.40392,"detection_":8.0,"radiative_":2.0,"sat":"npp","state":"HR","district":"YAMUNANAGAR"},{"lat":28.74697,"lon":76.56599,"detection_":8.0,"radiative_":5.4,"sat":"npp","state":"HR","district":"ROHTAK"},{"lat":29.19494,"lon":76.22169,"detection_":8.0,"radiative_":3.2,"sat":"npp","state":"HR","district":"HISAR"},{"lat":29.27393,"lon":76.1894,"detection_":8.0,"radiative_":2.6,"sat":"npp","state":"HR","district":"HISAR"},{"lat":28.94763,"lon":76.4837,"detection_":8.0,"radiative_":1.7,"sat":"npp","state":"HR","district":"ROHTAK"},{"lat":28.91873,"lon":76.48943,"detection_":8.0,"radiative_":4.5,"sat":"npp","state":"HR","district":"ROHTAK"},{"lat":29.12249,"lon":75.7776,"detection_":8.0,"radiative_":0.6,"sat":"npp","state":"HR","district":"HISAR"},{"lat":28.82938,"lon":76.97164,"detection_":8.0,"radiative_":0.5,"sat":"npp","state":"HR","district":"SONIPAT"},{"lat":30.31214,"lon":76.99204,"detection_":8.0,"radiative_":3.5,"sat":"npp","state":"HR","district":"AMBALA"},{"lat":27.95033,"lon":77.51315,"detection_":8.0,"radiative_":5.9,"sat":"npp","state":"HR","district":"PALWAL"}],"districts":{"AMBALA":1,"BHIWANI":0,"FARIDABAD":0,"FATEHABAD":0,"GURUGRAM":0,"HISAR":4,"JHAJJAR":0,"JIND":0,"KAITHAL":0,"KARNAL":0,"KURUKSHETRA":1,"MAHENDRAGARH":0,"MEWAT":0,"PALWAL":1,"PANCHKULA":0,"PANIPAT":0,"REWARI":0,"ROHTAK":3,"SIRSA":0,"SONIPAT":1,"YAMUNANAGAR":2,"CHARKHI DADRI":0}}