{"last_update":"7:11 PM, 16 Dec 2023","total":7,"locations":[{"lat":29.136,"lon":76.817,"detection_":66.0,"radiative_":11.2,"sat":"mod","state":"HR","district":"SONIPAT"},{"lat":28.4963,"lon":76.66404,"detection_":8.0,"radiative_":2.9,"sat":"npp","state":"HR","district":"JHAJJAR"},{"lat":29.0505,"lon":76.51836,"detection_":8.0,"radiative_":1.3,"sat":"npp","state":"HR","district":"ROHTAK"},{"lat":29.13584,"lon":76.82347,"detection_":9.0,"radiative_":9.2,"sat":"npp","state":"HR","district":"SONIPAT"},{"lat":29.90623,"lon":74.94388,"detection_":8.0,"radiative_":1.1,"sat":"npp","state":"HR","district":"SIRSA"},{"lat":29.91294,"lon":74.94439,"detection_":8.0,"radiative_":1.1,"sat":"npp","state":"HR","district":"SIRSA"},{"lat":28.36079,"lon":77.24028,"detection_":8.0,"radiative_":0.5,"sat":"npp","state":"HR","district":"FARIDABAD"}],"districts":{"AMBALA":0,"BHIWANI":0,"FARIDABAD":1,"FATEHABAD":0,"GURUGRAM":0,"HISAR":0,"JHAJJAR":1,"JIND":0,"KAITHAL":0,"KARNAL":0,"KURUKSHETRA":0,"MAHENDRAGARH":0,"MEWAT":0,"PALWAL":0,"PANCHKULA":0,"PANIPAT":0,"REWARI":0,"ROHTAK":1,"SIRSA":2,"SONIPAT":2,"YAMUNANAGAR":0,"CHARKHI DADRI":0}}