{"last_update":"6:46 PM, 14 Nov 2023","total":11,"locations":[{"lat":29.903,"lon":74.945,"detection_":64.0,"radiative_":7.8,"sat":"mod","state":"HR","district":"SIRSA"},{"lat":29.41235,"lon":75.18899,"detection_":8.0,"radiative_":4.6,"sat":"npp","state":"HR","district":"SIRSA"},{"lat":30.04087,"lon":77.17677,"detection_":8.0,"radiative_":2.2,"sat":"npp","state":"HR","district":"YAMUNANAGAR"},{"lat":29.64477,"lon":75.1028,"detection_":8.0,"radiative_":1.9,"sat":"npp","state":"HR","district":"SIRSA"},{"lat":29.54468,"lon":74.73373,"detection_":8.0,"radiative_":3.7,"sat":"npp","state":"HR","district":"SIRSA"},{"lat":29.5887,"lon":75.34068,"detection_":8.0,"radiative_":4.5,"sat":"npp","state":"HR","district":"FATEHABAD"},{"lat":29.96695,"lon":76.60553,"detection_":8.0,"radiative_":2.6,"sat":"npp","state":"HR","district":"KURUKSHETRA"},{"lat":29.65929,"lon":76.15708,"detection_":8.0,"radiative_":4.0,"sat":"npp","state":"HR","district":"JIND"},{"lat":29.20512,"lon":76.59934,"detection_":8.0,"radiative_":3.5,"sat":"npp","state":"HR","district":"SONIPAT"},{"lat":30.28134,"lon":77.39115,"detection_":8.0,"radiative_":2.2,"sat":"npp","state":"HR","district":"YAMUNANAGAR"},{"lat":29.65866,"lon":76.15358,"detection_":8.0,"radiative_":1.6,"sat":"npp","state":"HR","district":"JIND"}],"districts":{"AMBALA":0,"BHIWANI":0,"FARIDABAD":0,"FATEHABAD":1,"GURUGRAM":0,"HISAR":0,"JHAJJAR":0,"JIND":2,"KAITHAL":0,"KARNAL":0,"KURUKSHETRA":1,"MAHENDRAGARH":0,"MEWAT":0,"PALWAL":0,"PANCHKULA":0,"PANIPAT":0,"REWARI":0,"ROHTAK":0,"SIRSA":4,"SONIPAT":1,"YAMUNANAGAR":2,"CHARKHI DADRI":0}}