{"last_update":"6:43 PM, 14 Nov 2023","total":6,"locations":[{"lat":29.32526,"lon":76.98878,"detection_":8.0,"radiative_":1.9,"sat":"npp","state":"HR","district":"PANIPAT"},{"lat":30.23253,"lon":77.33326,"detection_":8.0,"radiative_":2.7,"sat":"npp","state":"HR","district":"YAMUNANAGAR"},{"lat":28.90445,"lon":77.22329,"detection_":8.0,"radiative_":4.4,"sat":"npp","state":"HR","district":"SONIPAT"},{"lat":29.36548,"lon":76.56976,"detection_":8.0,"radiative_":5.2,"sat":"npp","state":"HR","district":"JIND"},{"lat":29.62528,"lon":76.91329,"detection_":8.0,"radiative_":5.6,"sat":"npp","state":"HR","district":"KARNAL"},{"lat":28.9059,"lon":77.22549,"detection_":8.0,"radiative_":4.5,"sat":"npp","state":"HR","district":"SONIPAT"}],"districts":{"AMBALA":0,"BHIWANI":0,"FARIDABAD":0,"FATEHABAD":0,"GURUGRAM":0,"HISAR":0,"JHAJJAR":0,"JIND":1,"KAITHAL":0,"KARNAL":1,"KURUKSHETRA":0,"MAHENDRAGARH":0,"MEWAT":0,"PALWAL":0,"PANCHKULA":0,"PANIPAT":1,"REWARI":0,"ROHTAK":0,"SIRSA":0,"SONIPAT":2,"YAMUNANAGAR":1,"CHARKHI DADRI":0}}