{"last_update":"11:11 PM, 14 Dec 2023","total":9,"locations":[{"lat":28.02431,"lon":77.29653,"detection_":8.0,"radiative_":2.0,"sat":"npp","state":"HR","district":"PALWAL"},{"lat":28.12146,"lon":77.41789,"detection_":8.0,"radiative_":2.7,"sat":"npp","state":"HR","district":"PALWAL"},{"lat":28.35989,"lon":77.24214,"detection_":8.0,"radiative_":0.4,"sat":"npp","state":"HR","district":"FARIDABAD"},{"lat":29.16762,"lon":76.65465,"detection_":8.0,"radiative_":5.1,"sat":"npp","state":"HR","district":"SONIPAT"},{"lat":28.49852,"lon":76.78228,"detection_":8.0,"radiative_":5.3,"sat":"npp","state":"HR","district":"JHAJJAR"},{"lat":29.29082,"lon":76.42866,"detection_":8.0,"radiative_":4.2,"sat":"npp","state":"HR","district":"JIND"},{"lat":29.28619,"lon":76.23087,"detection_":8.0,"radiative_":1.1,"sat":"npp","state":"HR","district":"JIND"},{"lat":28.34743,"lon":77.23132,"detection_":8.0,"radiative_":0.4,"sat":"npp","state":"HR","district":"FARIDABAD"},{"lat":28.12109,"lon":77.42046,"detection_":8.0,"radiative_":3.3,"sat":"npp","state":"HR","district":"PALWAL"}],"districts":{"AMBALA":0,"BHIWANI":0,"FARIDABAD":2,"FATEHABAD":0,"GURUGRAM":0,"HISAR":0,"JHAJJAR":1,"JIND":2,"KAITHAL":0,"KARNAL":0,"KURUKSHETRA":0,"MAHENDRAGARH":0,"MEWAT":0,"PALWAL":3,"PANCHKULA":0,"PANIPAT":0,"REWARI":0,"ROHTAK":0,"SIRSA":0,"SONIPAT":1,"YAMUNANAGAR":0,"CHARKHI DADRI":0}}