{"last_update":"6:44 PM, 14 Nov 2023","total":6,"locations":[{"lat":30.36404,"lon":76.91898,"detection_":8.0,"radiative_":2.1,"sat":"npp","state":"HR","district":"AMBALA"},{"lat":29.51035,"lon":76.69054,"detection_":8.0,"radiative_":13.1,"sat":"npp","state":"HR","district":"KARNAL"},{"lat":30.07969,"lon":76.7313,"detection_":8.0,"radiative_":2.2,"sat":"npp","state":"HR","district":"KURUKSHETRA"},{"lat":29.71848,"lon":76.5523,"detection_":8.0,"radiative_":3.0,"sat":"npp","state":"HR","district":"KAITHAL"},{"lat":28.84547,"lon":77.1489,"detection_":8.0,"radiative_":0.4,"sat":"npp","state":"HR","district":"SONIPAT"},{"lat":29.31847,"lon":76.50847,"detection_":8.0,"radiative_":10.7,"sat":"npp","state":"HR","district":"JIND"}],"districts":{"AMBALA":1,"BHIWANI":0,"FARIDABAD":0,"FATEHABAD":0,"GURUGRAM":0,"HISAR":0,"JHAJJAR":0,"JIND":1,"KAITHAL":1,"KARNAL":1,"KURUKSHETRA":1,"MAHENDRAGARH":0,"MEWAT":0,"PALWAL":0,"PANCHKULA":0,"PANIPAT":0,"REWARI":0,"ROHTAK":0,"SIRSA":0,"SONIPAT":1,"YAMUNANAGAR":0,"CHARKHI DADRI":0}}