{"last_update":"6:44 PM, 14 Nov 2023","total":5,"locations":[{"lat":30.24112,"lon":76.79928,"detection_":8.0,"radiative_":2.8,"sat":"npp","state":"HR","district":"AMBALA"},{"lat":28.84438,"lon":77.14962,"detection_":8.0,"radiative_":0.5,"sat":"npp","state":"HR","district":"SONIPAT"},{"lat":29.80748,"lon":76.56723,"detection_":8.0,"radiative_":3.7,"sat":"npp","state":"HR","district":"KAITHAL"},{"lat":30.15446,"lon":76.80704,"detection_":8.0,"radiative_":0.9,"sat":"npp","state":"HR","district":"KURUKSHETRA"},{"lat":27.94204,"lon":77.51451,"detection_":8.0,"radiative_":6.3,"sat":"npp","state":"HR","district":"PALWAL"}],"districts":{"AMBALA":1,"BHIWANI":0,"FARIDABAD":0,"FATEHABAD":0,"GURUGRAM":0,"HISAR":0,"JHAJJAR":0,"JIND":0,"KAITHAL":1,"KARNAL":0,"KURUKSHETRA":1,"MAHENDRAGARH":0,"MEWAT":0,"PALWAL":1,"PANCHKULA":0,"PANIPAT":0,"REWARI":0,"ROHTAK":0,"SIRSA":0,"SONIPAT":1,"YAMUNANAGAR":0,"CHARKHI DADRI":0}}