{"last_update":"6:43 PM, 14 Nov 2023","total":15,"locations":[{"lat":29.904,"lon":74.941,"detection_":89.0,"radiative_":146.6,"sat":"mod","state":"HR","district":"SIRSA"},{"lat":29.906,"lon":74.935,"detection_":64.0,"radiative_":98.7,"sat":"mod","state":"HR","district":"SIRSA"},{"lat":29.35049,"lon":76.72716,"detection_":8.0,"radiative_":1.9,"sat":"npp","state":"HR","district":"PANIPAT"},{"lat":30.38173,"lon":76.97157,"detection_":8.0,"radiative_":3.6,"sat":"npp","state":"HR","district":"AMBALA"},{"lat":29.26252,"lon":76.97116,"detection_":8.0,"radiative_":4.0,"sat":"npp","state":"HR","district":"PANIPAT"},{"lat":29.49101,"lon":76.81073,"detection_":8.0,"radiative_":2.3,"sat":"npp","state":"HR","district":"KARNAL"},{"lat":28.92463,"lon":77.02907,"detection_":8.0,"radiative_":8.4,"sat":"npp","state":"HR","district":"SONIPAT"},{"lat":29.35163,"lon":76.7296,"detection_":8.0,"radiative_":2.1,"sat":"npp","state":"HR","district":"PANIPAT"},{"lat":29.30324,"lon":76.41318,"detection_":8.0,"radiative_":3.0,"sat":"npp","state":"HR","district":"JIND"},{"lat":29.30248,"lon":76.40885,"detection_":8.0,"radiative_":2.4,"sat":"npp","state":"HR","district":"JIND"},{"lat":30.30783,"lon":76.86592,"detection_":8.0,"radiative_":1.7,"sat":"npp","state":"HR","district":"AMBALA"},{"lat":29.31438,"lon":77.07261,"detection_":8.0,"radiative_":3.9,"sat":"npp","state":"HR","district":"PANIPAT"},{"lat":28.19014,"lon":77.31107,"detection_":8.0,"radiative_":2.9,"sat":"npp","state":"HR","district":"PALWAL"},{"lat":28.34622,"lon":77.23274,"detection_":8.0,"radiative_":0.5,"sat":"npp","state":"HR","district":"FARIDABAD"},{"lat":28.80629,"lon":76.83978,"detection_":8.0,"radiative_":0.5,"sat":"npp","state":"HR","district":"JHAJJAR"}],"districts":{"AMBALA":2,"BHIWANI":0,"FARIDABAD":1,"FATEHABAD":0,"GURUGRAM":0,"HISAR":0,"JHAJJAR":1,"JIND":2,"KAITHAL":0,"KARNAL":1,"KURUKSHETRA":0,"MAHENDRAGARH":0,"MEWAT":0,"PALWAL":1,"PANCHKULA":0,"PANIPAT":4,"REWARI":0,"ROHTAK":0,"SIRSA":2,"SONIPAT":1,"YAMUNANAGAR":0,"CHARKHI DADRI":0}}