{"last_update":"6:45 PM, 14 Nov 2023","total":19,"locations":[{"lat":29.056,"lon":76.521,"detection_":72.0,"radiative_":25.6,"sat":"mod","state":"HR","district":"ROHTAK"},{"lat":28.18797,"lon":77.30771,"detection_":8.0,"radiative_":1.7,"sat":"npp","state":"HR","district":"PALWAL"},{"lat":28.66776,"lon":76.61205,"detection_":8.0,"radiative_":6.0,"sat":"npp","state":"HR","district":"JHAJJAR"},{"lat":28.66884,"lon":76.60846,"detection_":8.0,"radiative_":3.2,"sat":"npp","state":"HR","district":"JHAJJAR"},{"lat":29.69777,"lon":77.06429,"detection_":8.0,"radiative_":2.5,"sat":"npp","state":"HR","district":"KARNAL"},{"lat":29.42294,"lon":77.09276,"detection_":8.0,"radiative_":4.4,"sat":"npp","state":"HR","district":"PANIPAT"},{"lat":30.22798,"lon":77.12839,"detection_":8.0,"radiative_":4.4,"sat":"npp","state":"HR","district":"YAMUNANAGAR"},{"lat":30.23121,"lon":77.12295,"detection_":8.0,"radiative_":6.4,"sat":"npp","state":"HR","district":"AMBALA"},{"lat":29.40403,"lon":77.10143,"detection_":8.0,"radiative_":2.6,"sat":"npp","state":"HR","district":"PANIPAT"},{"lat":29.79286,"lon":75.79144,"detection_":8.0,"radiative_":8.9,"sat":"npp","state":"HR","district":"FATEHABAD"},{"lat":29.23744,"lon":76.76182,"detection_":8.0,"radiative_":1.6,"sat":"npp","state":"HR","district":"SONIPAT"},{"lat":29.72463,"lon":76.38006,"detection_":8.0,"radiative_":1.0,"sat":"npp","state":"HR","district":"KAITHAL"},{"lat":29.72412,"lon":76.38234,"detection_":8.0,"radiative_":0.9,"sat":"npp","state":"HR","district":"KAITHAL"},{"lat":29.79229,"lon":75.78866,"detection_":8.0,"radiative_":6.3,"sat":"npp","state":"HR","district":"FATEHABAD"},{"lat":28.34564,"lon":77.23201,"detection_":8.0,"radiative_":2.9,"sat":"npp","state":"HR","district":"FARIDABAD"},{"lat":28.34723,"lon":77.23026,"detection_":8.0,"radiative_":1.1,"sat":"npp","state":"HR","district":"FARIDABAD"},{"lat":28.23634,"lon":77.34771,"detection_":8.0,"radiative_":4.2,"sat":"npp","state":"HR","district":"FARIDABAD"},{"lat":28.19543,"lon":77.34399,"detection_":8.0,"radiative_":4.4,"sat":"npp","state":"HR","district":"PALWAL"},{"lat":28.12428,"lon":77.17422,"detection_":8.0,"radiative_":4.1,"sat":"npp","state":"HR","district":"PALWAL"}],"districts":{"AMBALA":1,"BHIWANI":0,"FARIDABAD":3,"FATEHABAD":2,"GURUGRAM":0,"HISAR":0,"JHAJJAR":2,"JIND":0,"KAITHAL":2,"KARNAL":1,"KURUKSHETRA":0,"MAHENDRAGARH":0,"MEWAT":0,"PALWAL":3,"PANCHKULA":0,"PANIPAT":2,"REWARI":0,"ROHTAK":1,"SIRSA":0,"SONIPAT":1,"YAMUNANAGAR":1,"CHARKHI DADRI":0}}