{"last_update":"6:44 PM, 14 Nov 2023","total":5,"locations":[{"lat":29.996,"lon":77.267,"detection_":56.0,"radiative_":4.3,"sat":"mod","state":"HR","district":"YAMUNANAGAR"},{"lat":30.15443,"lon":76.99699,"detection_":8.0,"radiative_":2.8,"sat":"npp","state":"HR","district":"KURUKSHETRA"},{"lat":29.47848,"lon":76.85696,"detection_":8.0,"radiative_":2.2,"sat":"npp","state":"HR","district":"PANIPAT"},{"lat":28.74273,"lon":76.95625,"detection_":8.0,"radiative_":0.4,"sat":"npp","state":"HR","district":"JHAJJAR"},{"lat":28.3478,"lon":77.23169,"detection_":8.0,"radiative_":0.6,"sat":"npp","state":"HR","district":"FARIDABAD"}],"districts":{"AMBALA":0,"BHIWANI":0,"FARIDABAD":1,"FATEHABAD":0,"GURUGRAM":0,"HISAR":0,"JHAJJAR":1,"JIND":0,"KAITHAL":0,"KARNAL":0,"KURUKSHETRA":1,"MAHENDRAGARH":0,"MEWAT":0,"PALWAL":0,"PANCHKULA":0,"PANIPAT":1,"REWARI":0,"ROHTAK":0,"SIRSA":0,"SONIPAT":0,"YAMUNANAGAR":1,"CHARKHI DADRI":0}}