{"last_update":"10:12 AM, 22 Nov 2023","total":7,"locations":[{"lat":28.35862,"lon":77.2412,"detection_":8.0,"radiative_":0.5,"sat":"npp","state":"HR","district":"FARIDABAD"},{"lat":29.64598,"lon":76.71561,"detection_":8.0,"radiative_":0.7,"sat":"npp","state":"HR","district":"KARNAL"},{"lat":29.62452,"lon":75.65371,"detection_":8.0,"radiative_":0.6,"sat":"npp","state":"HR","district":"FATEHABAD"},{"lat":29.21444,"lon":77.01149,"detection_":8.0,"radiative_":1.4,"sat":"npp","state":"HR","district":"PANIPAT"},{"lat":28.77727,"lon":76.94944,"detection_":8.0,"radiative_":0.7,"sat":"npp","state":"HR","district":"JHAJJAR"},{"lat":28.77396,"lon":76.94875,"detection_":8.0,"radiative_":1.5,"sat":"npp","state":"HR","district":"JHAJJAR"},{"lat":30.01944,"lon":76.62701,"detection_":8.0,"radiative_":1.2,"sat":"npp","state":"HR","district":"KURUKSHETRA"}],"districts":{"AMBALA":0,"BHIWANI":0,"FARIDABAD":1,"FATEHABAD":1,"GURUGRAM":0,"HISAR":0,"JHAJJAR":2,"JIND":0,"KAITHAL":0,"KARNAL":1,"KURUKSHETRA":1,"MAHENDRAGARH":0,"MEWAT":0,"PALWAL":0,"PANCHKULA":0,"PANIPAT":1,"REWARI":0,"ROHTAK":0,"SIRSA":0,"SONIPAT":0,"YAMUNANAGAR":0,"CHARKHI DADRI":0}}