{"last_update":"6:45 PM, 14 Nov 2023","total":8,"locations":[{"lat":29.913,"lon":74.941,"detection_":82.0,"radiative_":44.0,"sat":"mod","state":"HR","district":"SIRSA"},{"lat":29.915,"lon":76.74,"detection_":65.0,"radiative_":13.5,"sat":"mod","state":"HR","district":"KURUKSHETRA"},{"lat":30.366,"lon":77.364,"detection_":74.0,"radiative_":12.1,"sat":"mod","state":"HR","district":"YAMUNANAGAR"},{"lat":29.90418,"lon":74.94671,"detection_":8.0,"radiative_":16.3,"sat":"npp","state":"HR","district":"SIRSA"},{"lat":30.16214,"lon":76.95856,"detection_":8.0,"radiative_":4.5,"sat":"npp","state":"HR","district":"AMBALA"},{"lat":29.91251,"lon":74.9425,"detection_":8.0,"radiative_":11.6,"sat":"npp","state":"HR","district":"SIRSA"},{"lat":28.00238,"lon":77.49599,"detection_":8.0,"radiative_":3.2,"sat":"npp","state":"HR","district":"PALWAL"},{"lat":28.10608,"lon":77.46459,"detection_":8.0,"radiative_":2.1,"sat":"npp","state":"HR","district":"PALWAL"}],"districts":{"AMBALA":1,"BHIWANI":0,"FARIDABAD":0,"FATEHABAD":0,"GURUGRAM":0,"HISAR":0,"JHAJJAR":0,"JIND":0,"KAITHAL":0,"KARNAL":0,"KURUKSHETRA":1,"MAHENDRAGARH":0,"MEWAT":0,"PALWAL":2,"PANCHKULA":0,"PANIPAT":0,"REWARI":0,"ROHTAK":0,"SIRSA":3,"SONIPAT":0,"YAMUNANAGAR":1,"CHARKHI DADRI":0}}