{"last_update":"6:43 PM, 14 Nov 2023","total":13,"locations":[{"lat":28.65019,"lon":76.30157,"detection_":8.0,"radiative_":2.1,"sat":"npp","state":"HR","district":"CHARKHI DADRI"},{"lat":28.69041,"lon":76.66128,"detection_":8.0,"radiative_":3.5,"sat":"npp","state":"HR","district":"JHAJJAR"},{"lat":28.9979,"lon":76.9417,"detection_":8.0,"radiative_":2.7,"sat":"npp","state":"HR","district":"SONIPAT"},{"lat":30.11243,"lon":77.30302,"detection_":8.0,"radiative_":28.5,"sat":"npp","state":"HR","district":"YAMUNANAGAR"},{"lat":30.1257,"lon":76.83753,"detection_":8.0,"radiative_":1.7,"sat":"npp","state":"HR","district":"KURUKSHETRA"},{"lat":30.11292,"lon":76.84413,"detection_":8.0,"radiative_":2.3,"sat":"npp","state":"HR","district":"KURUKSHETRA"},{"lat":29.52487,"lon":76.68074,"detection_":8.0,"radiative_":7.8,"sat":"npp","state":"HR","district":"KARNAL"},{"lat":29.51472,"lon":76.65805,"detection_":8.0,"radiative_":1.8,"sat":"npp","state":"HR","district":"KARNAL"},{"lat":28.79739,"lon":76.74655,"detection_":8.0,"radiative_":3.5,"sat":"npp","state":"HR","district":"ROHTAK"},{"lat":29.0845,"lon":76.17799,"detection_":8.0,"radiative_":2.2,"sat":"npp","state":"HR","district":"HISAR"},{"lat":29.55708,"lon":76.76093,"detection_":8.0,"radiative_":2.6,"sat":"npp","state":"HR","district":"KARNAL"},{"lat":29.03438,"lon":76.91026,"detection_":8.0,"radiative_":2.9,"sat":"npp","state":"HR","district":"SONIPAT"},{"lat":28.80635,"lon":76.92406,"detection_":8.0,"radiative_":3.3,"sat":"npp","state":"HR","district":"SONIPAT"}],"districts":{"AMBALA":0,"BHIWANI":0,"FARIDABAD":0,"FATEHABAD":0,"GURUGRAM":0,"HISAR":1,"JHAJJAR":1,"JIND":0,"KAITHAL":0,"KARNAL":3,"KURUKSHETRA":2,"MAHENDRAGARH":0,"MEWAT":0,"PALWAL":0,"PANCHKULA":0,"PANIPAT":0,"REWARI":0,"ROHTAK":1,"SIRSA":0,"SONIPAT":3,"YAMUNANAGAR":1,"CHARKHI DADRI":1}}