{"last_update":"6:46 PM, 14 Nov 2023","total":9,"locations":[{"lat":29.62494,"lon":77.00285,"detection_":8.0,"radiative_":3.8,"sat":"npp","state":"HR","district":"KARNAL"},{"lat":29.62614,"lon":77.00842,"detection_":8.0,"radiative_":3.8,"sat":"npp","state":"HR","district":"KARNAL"},{"lat":29.6233,"lon":77.00677,"detection_":8.0,"radiative_":7.1,"sat":"npp","state":"HR","district":"KARNAL"},{"lat":29.91107,"lon":74.94376,"detection_":8.0,"radiative_":11.8,"sat":"npp","state":"HR","district":"SIRSA"},{"lat":28.98921,"lon":77.12437,"detection_":8.0,"radiative_":2.0,"sat":"npp","state":"HR","district":"SONIPAT"},{"lat":29.4514,"lon":75.54611,"detection_":8.0,"radiative_":3.2,"sat":"npp","state":"HR","district":"FATEHABAD"},{"lat":29.0915,"lon":75.93481,"detection_":8.0,"radiative_":0.6,"sat":"npp","state":"HR","district":"HISAR"},{"lat":29.91253,"lon":74.94416,"detection_":8.0,"radiative_":3.6,"sat":"npp","state":"HR","district":"SIRSA"},{"lat":29.90521,"lon":74.94795,"detection_":8.0,"radiative_":1.1,"sat":"npp","state":"HR","district":"SIRSA"}],"districts":{"AMBALA":0,"BHIWANI":0,"FARIDABAD":0,"FATEHABAD":1,"GURUGRAM":0,"HISAR":1,"JHAJJAR":0,"JIND":0,"KAITHAL":0,"KARNAL":3,"KURUKSHETRA":0,"MAHENDRAGARH":0,"MEWAT":0,"PALWAL":0,"PANCHKULA":0,"PANIPAT":0,"REWARI":0,"ROHTAK":0,"SIRSA":3,"SONIPAT":1,"YAMUNANAGAR":0,"CHARKHI DADRI":0}}