{"last_update":"6:49 PM, 14 Nov 2023","total":9,"locations":[{"lat":29.652,"lon":75.885,"detection_":60.0,"radiative_":8.9,"sat":"mod","state":"HR","district":"FATEHABAD"},{"lat":29.58603,"lon":76.02177,"detection_":8.0,"radiative_":3.3,"sat":"npp","state":"HR","district":"JIND"},{"lat":29.42297,"lon":75.70193,"detection_":8.0,"radiative_":2.0,"sat":"npp","state":"HR","district":"HISAR"},{"lat":29.16742,"lon":76.99953,"detection_":8.0,"radiative_":0.4,"sat":"npp","state":"HR","district":"SONIPAT"},{"lat":28.74005,"lon":76.92955,"detection_":8.0,"radiative_":0.8,"sat":"npp","state":"HR","district":"JHAJJAR"},{"lat":30.56265,"lon":76.91247,"detection_":8.0,"radiative_":2.2,"sat":"npp","state":"HR","district":null},{"lat":29.68143,"lon":75.90766,"detection_":8.0,"radiative_":2.1,"sat":"npp","state":"HR","district":"FATEHABAD"},{"lat":29.74388,"lon":75.62619,"detection_":8.0,"radiative_":2.7,"sat":"npp","state":"HR","district":"FATEHABAD"},{"lat":30.25827,"lon":76.73862,"detection_":8.0,"radiative_":2.3,"sat":"npp","state":"HR","district":"AMBALA"}],"districts":{"AMBALA":1,"BHIWANI":0,"FARIDABAD":0,"FATEHABAD":3,"GURUGRAM":0,"HISAR":1,"JHAJJAR":1,"JIND":1,"KAITHAL":0,"KARNAL":0,"KURUKSHETRA":0,"MAHENDRAGARH":0,"MEWAT":0,"PALWAL":0,"PANCHKULA":0,"PANIPAT":0,"REWARI":0,"ROHTAK":0,"SIRSA":0,"SONIPAT":1,"YAMUNANAGAR":0,"CHARKHI DADRI":0}}