{"last_update":"10:15 PM, 26 Dec 2024","total":18,"locations":[{"lat":30.14073,"lon":77.04382,"detection_":8.0,"radiative_":3.4,"sat":"npp","state":"HR","district":"AMBALA"},{"lat":28.98557,"lon":77.17353,"detection_":8.0,"radiative_":1.8,"sat":"npp","state":"HR","district":"SONIPAT"},{"lat":29.15227,"lon":76.16591,"detection_":8.0,"radiative_":2.4,"sat":"npp","state":"HR","district":"HISAR"},{"lat":30.59813,"lon":76.97751,"detection_":8.0,"radiative_":1.6,"sat":"npp","state":"HR","district":"PANCHKULA"},{"lat":29.05882,"lon":76.47321,"detection_":8.0,"radiative_":4.3,"sat":"npp","state":"HR","district":"ROHTAK"},{"lat":29.52065,"lon":76.64919,"detection_":8.0,"radiative_":3.2,"sat":"npp","state":"HR","district":"KARNAL"},{"lat":30.07487,"lon":76.72606,"detection_":8.0,"radiative_":7.6,"sat":"npp","state":"HR","district":"KURUKSHETRA"},{"lat":29.0555,"lon":76.47388,"detection_":8.0,"radiative_":4.3,"sat":"npp","state":"HR","district":"ROHTAK"},{"lat":29.22502,"lon":76.75362,"detection_":8.0,"radiative_":2.0,"sat":"npp","state":"HR","district":"SONIPAT"},{"lat":29.52395,"lon":76.64851,"detection_":8.0,"radiative_":6.7,"sat":"npp","state":"HR","district":"KARNAL"},{"lat":29.15189,"lon":76.16461,"detection_":8.0,"radiative_":2.6,"sat":"npp","state":"HR","district":"HISAR"},{"lat":28.27199,"lon":77.27469,"detection_":8.0,"radiative_":0.7,"sat":"npp","state":"HR","district":"FARIDABAD"},{"lat":28.33998,"lon":77.21893,"detection_":8.0,"radiative_":1.1,"sat":"npp","state":"HR","district":"FARIDABAD"},{"lat":29.20107,"lon":76.70963,"detection_":8.0,"radiative_":1.3,"sat":"npp","state":"HR","district":"SONIPAT"},{"lat":28.98887,"lon":77.17287,"detection_":8.0,"radiative_":3.6,"sat":"npp","state":"HR","district":"SONIPAT"},{"lat":29.551,"lon":76.64704,"detection_":8.0,"radiative_":6.4,"sat":"npp","state":"HR","district":"KARNAL"},{"lat":29.33095,"lon":76.91125,"detection_":8.0,"radiative_":7.5,"sat":"npp","state":"HR","district":"PANIPAT"},{"lat":29.66132,"lon":76.81306,"detection_":8.0,"radiative_":2.1,"sat":"npp","state":"HR","district":"KARNAL"}],"districts":{"AMBALA":1,"BHIWANI":0,"FARIDABAD":2,"FATEHABAD":0,"GURUGRAM":0,"HISAR":2,"JHAJJAR":0,"JIND":0,"KAITHAL":0,"KARNAL":4,"KURUKSHETRA":1,"MAHENDRAGARH":0,"MEWAT":0,"PALWAL":0,"PANCHKULA":1,"PANIPAT":1,"REWARI":0,"ROHTAK":2,"SIRSA":0,"SONIPAT":4,"YAMUNANAGAR":0,"CHARKHI DADRI":0}}