{"last_update":"11:12 PM, 25 Oct 2024","total":12,"locations":[{"lat":29.81,"lon":75.83458,"detection_":8.0,"radiative_":3.1,"sat":"npp","state":"HR","district":"FATEHABAD"},{"lat":29.80466,"lon":75.83625,"detection_":8.0,"radiative_":3.1,"sat":"npp","state":"HR","district":null},{"lat":29.34339,"lon":75.92793,"detection_":8.0,"radiative_":4.4,"sat":"npp","state":"HR","district":"HISAR"},{"lat":28.8302,"lon":76.91364,"detection_":9.0,"radiative_":13.1,"sat":"npp","state":"HR","district":"SONIPAT"},{"lat":29.79575,"lon":76.12356,"detection_":8.0,"radiative_":0.5,"sat":"npp","state":"HR","district":null},{"lat":30.09812,"lon":76.43971,"detection_":8.0,"radiative_":5.0,"sat":"npp","state":"HR","district":"KAITHAL"},{"lat":28.7414,"lon":76.93039,"detection_":8.0,"radiative_":1.4,"sat":"npp","state":"HR","district":"JHAJJAR"},{"lat":29.79509,"lon":76.12382,"detection_":8.0,"radiative_":0.4,"sat":"npp","state":"HR","district":null},{"lat":28.82505,"lon":76.91517,"detection_":8.0,"radiative_":3.9,"sat":"npp","state":"HR","district":"SONIPAT"},{"lat":30.18705,"lon":77.13853,"detection_":8.0,"radiative_":1.3,"sat":"npp","state":"HR","district":"YAMUNANAGAR"},{"lat":29.97717,"lon":76.55404,"detection_":8.0,"radiative_":0.6,"sat":"npp","state":"HR","district":"KURUKSHETRA"},{"lat":28.24789,"lon":77.28592,"detection_":8.0,"radiative_":1.3,"sat":"npp","state":"HR","district":"PALWAL"}],"districts":{"AMBALA":0,"BHIWANI":0,"FARIDABAD":0,"FATEHABAD":1,"GURUGRAM":0,"HISAR":1,"JHAJJAR":1,"JIND":0,"KAITHAL":1,"KARNAL":0,"KURUKSHETRA":1,"MAHENDRAGARH":0,"MEWAT":0,"PALWAL":1,"PANCHKULA":0,"PANIPAT":0,"REWARI":0,"ROHTAK":0,"SIRSA":0,"SONIPAT":2,"YAMUNANAGAR":1,"CHARKHI DADRI":0}}