{"last_update":"9:14 PM, 18 Dec 2024","total":9,"locations":[{"lat":28.64604,"lon":76.52756,"detection_":8.0,"radiative_":3.8,"sat":"npp","state":"HR","district":"JHAJJAR"},{"lat":29.16244,"lon":76.70281,"detection_":8.0,"radiative_":2.7,"sat":"npp","state":"HR","district":"SONIPAT"},{"lat":28.99541,"lon":76.66135,"detection_":8.0,"radiative_":2.9,"sat":"npp","state":"HR","district":"ROHTAK"},{"lat":29.74154,"lon":76.24647,"detection_":8.0,"radiative_":3.0,"sat":"npp","state":"HR","district":"KAITHAL"},{"lat":30.4544,"lon":77.0794,"detection_":8.0,"radiative_":4.3,"sat":"npp","state":"HR","district":"AMBALA"},{"lat":29.55818,"lon":77.0935,"detection_":8.0,"radiative_":2.0,"sat":"npp","state":"HR","district":"KARNAL"},{"lat":29.74196,"lon":76.24751,"detection_":8.0,"radiative_":3.0,"sat":"npp","state":"HR","district":"KAITHAL"},{"lat":30.31752,"lon":77.33551,"detection_":8.0,"radiative_":2.3,"sat":"npp","state":"HR","district":"YAMUNANAGAR"},{"lat":29.32458,"lon":76.92662,"detection_":8.0,"radiative_":3.5,"sat":"npp","state":"HR","district":"PANIPAT"}],"districts":{"AMBALA":1,"BHIWANI":0,"FARIDABAD":0,"FATEHABAD":0,"GURUGRAM":0,"HISAR":0,"JHAJJAR":1,"JIND":0,"KAITHAL":2,"KARNAL":1,"KURUKSHETRA":0,"MAHENDRAGARH":0,"MEWAT":0,"PALWAL":0,"PANCHKULA":0,"PANIPAT":1,"REWARI":0,"ROHTAK":1,"SIRSA":0,"SONIPAT":1,"YAMUNANAGAR":1,"CHARKHI DADRI":0}}