{"last_update":"3:11 PM, 20 Feb 2024","total":5,"locations":[{"lat":29.896,"lon":76.72,"detection_":57.0,"radiative_":6.0,"sat":"mod","state":"HR","district":"KURUKSHETRA"},{"lat":29.019,"lon":76.963,"detection_":52.0,"radiative_":5.5,"sat":"mod","state":"HR","district":"SONIPAT"},{"lat":29.1986,"lon":76.40728,"detection_":8.0,"radiative_":5.3,"sat":"npp","state":"HR","district":"JIND"},{"lat":29.4278,"lon":76.78651,"detection_":8.0,"radiative_":11.1,"sat":"npp","state":"HR","district":"PANIPAT"},{"lat":27.9434,"lon":77.53359,"detection_":8.0,"radiative_":6.8,"sat":"npp","state":"HR","district":"PALWAL"}],"districts":{"AMBALA":0,"BHIWANI":0,"FARIDABAD":0,"FATEHABAD":0,"GURUGRAM":0,"HISAR":0,"JHAJJAR":0,"JIND":1,"KAITHAL":0,"KARNAL":0,"KURUKSHETRA":1,"MAHENDRAGARH":0,"MEWAT":0,"PALWAL":1,"PANCHKULA":0,"PANIPAT":1,"REWARI":0,"ROHTAK":0,"SIRSA":0,"SONIPAT":1,"YAMUNANAGAR":0,"CHARKHI DADRI":0}}