{"last_update":"2:11 PM, 04 May 2024","total":9,"locations":[{"lat":29.223,"lon":76.168,"detection_":71.0,"radiative_":59.4,"sat":"mod","state":"HR","district":"HISAR"},{"lat":28.801,"lon":76.669,"detection_":46.0,"radiative_":36.9,"sat":"mod","state":"HR","district":"JHAJJAR"},{"lat":29.715,"lon":76.047,"detection_":63.0,"radiative_":35.1,"sat":"mod","state":"HR","district":"JIND"},{"lat":29.06,"lon":76.481,"detection_":59.0,"radiative_":41.5,"sat":"mod","state":"HR","district":"ROHTAK"},{"lat":29.112,"lon":76.53,"detection_":61.0,"radiative_":45.5,"sat":"mod","state":"HR","district":"SONIPAT"},{"lat":28.707,"lon":76.599,"detection_":56.0,"radiative_":45.1,"sat":"mod","state":"HR","district":"JHAJJAR"},{"lat":29.79,"lon":77.06,"detection_":63.0,"radiative_":47.1,"sat":"mod","state":"HR","district":"KARNAL"},{"lat":29.061,"lon":76.476,"detection_":63.0,"radiative_":47.5,"sat":"mod","state":"HR","district":"ROHTAK"},{"lat":29.217,"lon":76.192,"detection_":64.0,"radiative_":49.4,"sat":"mod","state":"HR","district":"HISAR"}],"districts":{"AMBALA":0,"BHIWANI":0,"FARIDABAD":0,"FATEHABAD":0,"GURUGRAM":0,"HISAR":2,"JHAJJAR":2,"JIND":1,"KAITHAL":0,"KARNAL":1,"KURUKSHETRA":0,"MAHENDRAGARH":0,"MEWAT":0,"PALWAL":0,"PANCHKULA":0,"PANIPAT":0,"REWARI":0,"ROHTAK":2,"SIRSA":0,"SONIPAT":1,"YAMUNANAGAR":0,"CHARKHI DADRI":0}}