{"last_update":"3:12 PM, 27 Sep 2024","total":8,"locations":[{"lat":28.35472,"lon":77.23056,"detection_":8.0,"radiative_":1.3,"sat":"npp","state":"HR","district":"FARIDABAD"},{"lat":28.99142,"lon":77.12101,"detection_":8.0,"radiative_":4.1,"sat":"npp","state":"HR","district":"SONIPAT"},{"lat":28.98784,"lon":77.12184,"detection_":8.0,"radiative_":3.7,"sat":"npp","state":"HR","district":"SONIPAT"},{"lat":29.94801,"lon":76.6896,"detection_":8.0,"radiative_":5.4,"sat":"npp","state":"HR","district":"KURUKSHETRA"},{"lat":29.13079,"lon":75.77451,"detection_":8.0,"radiative_":2.5,"sat":"npp","state":"HR","district":"HISAR"},{"lat":29.63892,"lon":75.88966,"detection_":8.0,"radiative_":2.8,"sat":"npp","state":"HR","district":"FATEHABAD"},{"lat":28.35412,"lon":77.23473,"detection_":8.0,"radiative_":1.3,"sat":"npp","state":"HR","district":"FARIDABAD"},{"lat":28.35391,"lon":77.23386,"detection_":8.0,"radiative_":2.3,"sat":"npp","state":"HR","district":"FARIDABAD"}],"districts":{"AMBALA":0,"BHIWANI":0,"FARIDABAD":3,"FATEHABAD":1,"GURUGRAM":0,"HISAR":1,"JHAJJAR":0,"JIND":0,"KAITHAL":0,"KARNAL":0,"KURUKSHETRA":1,"MAHENDRAGARH":0,"MEWAT":0,"PALWAL":0,"PANCHKULA":0,"PANIPAT":0,"REWARI":0,"ROHTAK":0,"SIRSA":0,"SONIPAT":2,"YAMUNANAGAR":0,"CHARKHI DADRI":0}}