{"last_update":"2:16 PM, 30 Nov 2024","total":9,"locations":[{"lat":29.80155,"lon":76.80569,"detection_":8.0,"radiative_":1.1,"sat":"npp","state":"HR","district":"KARNAL"},{"lat":29.53955,"lon":75.19954,"detection_":8.0,"radiative_":0.4,"sat":"npp","state":"HR","district":"SIRSA"},{"lat":30.43061,"lon":77.04451,"detection_":8.0,"radiative_":2.8,"sat":"npp","state":"HR","district":"AMBALA"},{"lat":29.23355,"lon":76.21317,"detection_":8.0,"radiative_":4.5,"sat":"npp","state":"HR","district":"HISAR"},{"lat":29.12596,"lon":76.79037,"detection_":8.0,"radiative_":3.9,"sat":"npp","state":"HR","district":"SONIPAT"},{"lat":30.43227,"lon":77.04162,"detection_":8.0,"radiative_":1.4,"sat":"npp","state":"HR","district":"AMBALA"},{"lat":29.16522,"lon":76.24326,"detection_":8.0,"radiative_":3.3,"sat":"npp","state":"HR","district":"HISAR"},{"lat":28.20018,"lon":77.38258,"detection_":8.0,"radiative_":4.9,"sat":"npp","state":"HR","district":"PALWAL"},{"lat":29.41652,"lon":76.73273,"detection_":8.0,"radiative_":3.7,"sat":"npp","state":"HR","district":"JIND"}],"districts":{"AMBALA":2,"BHIWANI":0,"FARIDABAD":0,"FATEHABAD":0,"GURUGRAM":0,"HISAR":2,"JHAJJAR":0,"JIND":1,"KAITHAL":0,"KARNAL":1,"KURUKSHETRA":0,"MAHENDRAGARH":0,"MEWAT":0,"PALWAL":1,"PANCHKULA":0,"PANIPAT":0,"REWARI":0,"ROHTAK":0,"SIRSA":1,"SONIPAT":1,"YAMUNANAGAR":0,"CHARKHI DADRI":0}}