{"last_update":"9:13 PM, 26 Sep 2024","total":6,"locations":[{"lat":28.34788,"lon":77.2299,"detection_":8.0,"radiative_":1.7,"sat":"npp","state":"HR","district":"FARIDABAD"},{"lat":28.36019,"lon":77.24172,"detection_":8.0,"radiative_":0.3,"sat":"npp","state":"HR","district":"FARIDABAD"},{"lat":29.75547,"lon":76.06431,"detection_":8.0,"radiative_":3.6,"sat":"npp","state":"HR","district":"JIND"},{"lat":29.62294,"lon":75.88183,"detection_":8.0,"radiative_":4.7,"sat":"npp","state":"HR","district":"FATEHABAD"},{"lat":29.72943,"lon":76.55486,"detection_":8.0,"radiative_":3.7,"sat":"npp","state":"HR","district":"KAITHAL"},{"lat":29.06094,"lon":77.1431,"detection_":8.0,"radiative_":2.1,"sat":"npp","state":"HR","district":"SONIPAT"}],"districts":{"AMBALA":0,"BHIWANI":0,"FARIDABAD":2,"FATEHABAD":1,"GURUGRAM":0,"HISAR":0,"JHAJJAR":0,"JIND":1,"KAITHAL":1,"KARNAL":0,"KURUKSHETRA":0,"MAHENDRAGARH":0,"MEWAT":0,"PALWAL":0,"PANCHKULA":0,"PANIPAT":0,"REWARI":0,"ROHTAK":0,"SIRSA":0,"SONIPAT":1,"YAMUNANAGAR":0,"CHARKHI DADRI":0}}