{"last_update":"7:11 PM, 29 Mar 2024","total":12,"locations":[{"lat":29.618,"lon":75.481,"detection_":58.0,"radiative_":7.3,"sat":"mod","state":"HR","district":"FATEHABAD"},{"lat":29.616,"lon":75.491,"detection_":67.0,"radiative_":8.7,"sat":"mod","state":"HR","district":"FATEHABAD"},{"lat":28.77608,"lon":76.94667,"detection_":8.0,"radiative_":0.5,"sat":"npp","state":"HR","district":"JHAJJAR"},{"lat":29.62876,"lon":75.4835,"detection_":8.0,"radiative_":4.4,"sat":"npp","state":"HR","district":"FATEHABAD"},{"lat":29.62816,"lon":75.48749,"detection_":8.0,"radiative_":5.6,"sat":"npp","state":"HR","district":"FATEHABAD"},{"lat":28.81857,"lon":76.85362,"detection_":8.0,"radiative_":0.5,"sat":"npp","state":"HR","district":"ROHTAK"},{"lat":29.16785,"lon":76.74033,"detection_":8.0,"radiative_":5.8,"sat":"npp","state":"HR","district":"SONIPAT"},{"lat":30.39928,"lon":77.34927,"detection_":8.0,"radiative_":8.0,"sat":"npp","state":"HR","district":"YAMUNANAGAR"},{"lat":29.62485,"lon":75.48684,"detection_":8.0,"radiative_":1.7,"sat":"npp","state":"HR","district":"FATEHABAD"},{"lat":28.26997,"lon":77.27509,"detection_":8.0,"radiative_":0.4,"sat":"npp","state":"HR","district":"FARIDABAD"},{"lat":28.39054,"lon":77.25381,"detection_":8.0,"radiative_":3.0,"sat":"npp","state":"HR","district":"FARIDABAD"},{"lat":28.35675,"lon":77.24272,"detection_":8.0,"radiative_":0.4,"sat":"npp","state":"HR","district":"FARIDABAD"}],"districts":{"AMBALA":0,"BHIWANI":0,"FARIDABAD":3,"FATEHABAD":5,"GURUGRAM":0,"HISAR":0,"JHAJJAR":1,"JIND":0,"KAITHAL":0,"KARNAL":0,"KURUKSHETRA":0,"MAHENDRAGARH":0,"MEWAT":0,"PALWAL":0,"PANCHKULA":0,"PANIPAT":0,"REWARI":0,"ROHTAK":1,"SIRSA":0,"SONIPAT":1,"YAMUNANAGAR":1,"CHARKHI DADRI":0}}