{"last_update":"3:11 PM, 23 May 2024","total":10,"locations":[{"lat":30.11003,"lon":76.391,"detection_":8.0,"radiative_":1.3,"sat":"npp","state":"HR","district":"KAITHAL"},{"lat":29.95269,"lon":76.35905,"detection_":8.0,"radiative_":3.5,"sat":"npp","state":"HR","district":"KAITHAL"},{"lat":29.65501,"lon":76.14181,"detection_":8.0,"radiative_":3.1,"sat":"npp","state":"HR","district":"JIND"},{"lat":30.27522,"lon":76.64027,"detection_":8.0,"radiative_":6.0,"sat":"npp","state":"HR","district":"AMBALA"},{"lat":30.27645,"lon":76.64579,"detection_":8.0,"radiative_":6.0,"sat":"npp","state":"HR","district":"AMBALA"},{"lat":30.07187,"lon":76.69242,"detection_":8.0,"radiative_":6.3,"sat":"npp","state":"HR","district":"KURUKSHETRA"},{"lat":29.65258,"lon":75.16844,"detection_":9.0,"radiative_":11.2,"sat":"npp","state":"HR","district":"SIRSA"},{"lat":29.74944,"lon":75.65733,"detection_":8.0,"radiative_":2.9,"sat":"npp","state":"HR","district":"FATEHABAD"},{"lat":29.61882,"lon":75.09331,"detection_":8.0,"radiative_":3.3,"sat":"npp","state":"HR","district":"SIRSA"},{"lat":29.96887,"lon":76.78764,"detection_":8.0,"radiative_":3.2,"sat":"npp","state":"HR","district":"KURUKSHETRA"}],"districts":{"AMBALA":2,"BHIWANI":0,"FARIDABAD":0,"FATEHABAD":1,"GURUGRAM":0,"HISAR":0,"JHAJJAR":0,"JIND":1,"KAITHAL":2,"KARNAL":0,"KURUKSHETRA":2,"MAHENDRAGARH":0,"MEWAT":0,"PALWAL":0,"PANCHKULA":0,"PANIPAT":0,"REWARI":0,"ROHTAK":0,"SIRSA":2,"SONIPAT":0,"YAMUNANAGAR":0,"CHARKHI DADRI":0}}