{"last_update":"7:11 PM, 21 Feb 2024","total":8,"locations":[{"lat":30.44339,"lon":77.24288,"detection_":8.0,"radiative_":2.4,"sat":"npp","state":"HR","district":"YAMUNANAGAR"},{"lat":29.40461,"lon":77.09058,"detection_":8.0,"radiative_":3.5,"sat":"npp","state":"HR","district":"PANIPAT"},{"lat":30.04252,"lon":77.28039,"detection_":8.0,"radiative_":6.4,"sat":"npp","state":"HR","district":"YAMUNANAGAR"},{"lat":29.40124,"lon":77.09132,"detection_":8.0,"radiative_":1.3,"sat":"npp","state":"HR","district":"PANIPAT"},{"lat":29.59468,"lon":76.96867,"detection_":8.0,"radiative_":10.0,"sat":"npp","state":"HR","district":"KARNAL"},{"lat":28.03163,"lon":77.41763,"detection_":8.0,"radiative_":10.3,"sat":"npp","state":"HR","district":"PALWAL"},{"lat":28.35998,"lon":77.24371,"detection_":8.0,"radiative_":0.5,"sat":"npp","state":"HR","district":"FARIDABAD"},{"lat":28.02754,"lon":77.39295,"detection_":8.0,"radiative_":5.2,"sat":"npp","state":"HR","district":"PALWAL"}],"districts":{"AMBALA":0,"BHIWANI":0,"FARIDABAD":1,"FATEHABAD":0,"GURUGRAM":0,"HISAR":0,"JHAJJAR":0,"JIND":0,"KAITHAL":0,"KARNAL":1,"KURUKSHETRA":0,"MAHENDRAGARH":0,"MEWAT":0,"PALWAL":2,"PANCHKULA":0,"PANIPAT":2,"REWARI":0,"ROHTAK":0,"SIRSA":0,"SONIPAT":0,"YAMUNANAGAR":2,"CHARKHI DADRI":0}}