{"last_update":"3:11 PM, 28 May 2024","total":6,"locations":[{"lat":30.08918,"lon":76.582,"detection_":9.0,"radiative_":25.3,"sat":"npp","state":"HR","district":"KURUKSHETRA"},{"lat":29.2097,"lon":76.50063,"detection_":8.0,"radiative_":6.8,"sat":"npp","state":"HR","district":"SONIPAT"},{"lat":29.75325,"lon":76.80666,"detection_":8.0,"radiative_":2.5,"sat":"npp","state":"HR","district":"KARNAL"},{"lat":29.19486,"lon":76.10538,"detection_":8.0,"radiative_":3.4,"sat":"npp","state":"HR","district":"HISAR"},{"lat":28.77172,"lon":76.93159,"detection_":8.0,"radiative_":1.3,"sat":"npp","state":"HR","district":"JHAJJAR"},{"lat":28.36148,"lon":77.18743,"detection_":8.0,"radiative_":1.2,"sat":"npp","state":"HR","district":"FARIDABAD"}],"districts":{"AMBALA":0,"BHIWANI":0,"FARIDABAD":1,"FATEHABAD":0,"GURUGRAM":0,"HISAR":1,"JHAJJAR":1,"JIND":0,"KAITHAL":0,"KARNAL":1,"KURUKSHETRA":1,"MAHENDRAGARH":0,"MEWAT":0,"PALWAL":0,"PANCHKULA":0,"PANIPAT":0,"REWARI":0,"ROHTAK":0,"SIRSA":0,"SONIPAT":1,"YAMUNANAGAR":0,"CHARKHI DADRI":0}}