{"last_update":"4:11 PM, 26 Apr 2024","total":18,"locations":[{"lat":28.43662,"lon":76.29905,"detection_":8.0,"radiative_":0.6,"sat":"npp","state":"HR","district":"REWARI"},{"lat":29.37663,"lon":76.64295,"detection_":8.0,"radiative_":1.0,"sat":"npp","state":"HR","district":"JIND"},{"lat":29.85082,"lon":76.68781,"detection_":8.0,"radiative_":4.8,"sat":"npp","state":"HR","district":"KAITHAL"},{"lat":28.54254,"lon":76.80525,"detection_":8.0,"radiative_":4.1,"sat":"npp","state":"HR","district":"JHAJJAR"},{"lat":28.94965,"lon":77.13942,"detection_":8.0,"radiative_":9.5,"sat":"npp","state":"HR","district":"SONIPAT"},{"lat":28.82958,"lon":76.74216,"detection_":8.0,"radiative_":4.6,"sat":"npp","state":"HR","district":"ROHTAK"},{"lat":28.86312,"lon":76.70047,"detection_":8.0,"radiative_":27.7,"sat":"npp","state":"HR","district":"ROHTAK"},{"lat":29.47219,"lon":75.49103,"detection_":8.0,"radiative_":4.9,"sat":"npp","state":"HR","district":"FATEHABAD"},{"lat":30.02221,"lon":76.60719,"detection_":8.0,"radiative_":9.3,"sat":"npp","state":"HR","district":"KURUKSHETRA"},{"lat":29.10572,"lon":76.64023,"detection_":8.0,"radiative_":3.5,"sat":"npp","state":"HR","district":"SONIPAT"},{"lat":28.54682,"lon":76.80413,"detection_":8.0,"radiative_":7.3,"sat":"npp","state":"HR","district":"JHAJJAR"},{"lat":28.86215,"lon":76.69582,"detection_":8.0,"radiative_":27.7,"sat":"npp","state":"HR","district":"ROHTAK"},{"lat":28.44065,"lon":76.70236,"detection_":8.0,"radiative_":2.0,"sat":"npp","state":"HR","district":"JHAJJAR"},{"lat":27.95737,"lon":77.53423,"detection_":8.0,"radiative_":6.6,"sat":"npp","state":"HR","district":"PALWAL"},{"lat":28.27794,"lon":77.4111,"detection_":8.0,"radiative_":6.5,"sat":"npp","state":"HR","district":"FARIDABAD"},{"lat":28.29128,"lon":77.41223,"detection_":8.0,"radiative_":7.7,"sat":"npp","state":"HR","district":"FARIDABAD"},{"lat":28.20123,"lon":77.35741,"detection_":8.0,"radiative_":4.2,"sat":"npp","state":"HR","district":"PALWAL"},{"lat":28.34622,"lon":77.23063,"detection_":8.0,"radiative_":0.5,"sat":"npp","state":"HR","district":"FARIDABAD"}],"districts":{"AMBALA":0,"BHIWANI":0,"FARIDABAD":3,"FATEHABAD":1,"GURUGRAM":0,"HISAR":0,"JHAJJAR":3,"JIND":1,"KAITHAL":1,"KARNAL":0,"KURUKSHETRA":1,"MAHENDRAGARH":0,"MEWAT":0,"PALWAL":2,"PANCHKULA":0,"PANIPAT":0,"REWARI":1,"ROHTAK":3,"SIRSA":0,"SONIPAT":2,"YAMUNANAGAR":0,"CHARKHI DADRI":0}}