{"last_update":"5:11 PM, 03 Jun 2024","total":12,"locations":[{"lat":29.05372,"lon":76.0473,"detection_":8.0,"radiative_":11.1,"sat":"npp","state":"HR","district":"HISAR"},{"lat":30.27405,"lon":76.87901,"detection_":8.0,"radiative_":2.9,"sat":"npp","state":"HR","district":"AMBALA"},{"lat":29.21185,"lon":76.16811,"detection_":8.0,"radiative_":2.1,"sat":"npp","state":"HR","district":"HISAR"},{"lat":29.60952,"lon":75.94537,"detection_":8.0,"radiative_":2.9,"sat":"npp","state":"HR","district":"FATEHABAD"},{"lat":30.27119,"lon":76.88151,"detection_":8.0,"radiative_":3.7,"sat":"npp","state":"HR","district":"AMBALA"},{"lat":29.56403,"lon":76.88341,"detection_":8.0,"radiative_":4.6,"sat":"npp","state":"HR","district":"KARNAL"},{"lat":29.57603,"lon":75.43013,"detection_":8.0,"radiative_":3.4,"sat":"npp","state":"HR","district":"FATEHABAD"},{"lat":30.16499,"lon":76.8817,"detection_":8.0,"radiative_":2.6,"sat":"npp","state":"HR","district":"KURUKSHETRA"},{"lat":30.16578,"lon":76.88503,"detection_":8.0,"radiative_":2.9,"sat":"npp","state":"HR","district":"KURUKSHETRA"},{"lat":30.16653,"lon":76.88259,"detection_":8.0,"radiative_":2.6,"sat":"npp","state":"HR","district":"KURUKSHETRA"},{"lat":29.58496,"lon":76.87304,"detection_":8.0,"radiative_":2.1,"sat":"npp","state":"HR","district":"KARNAL"},{"lat":29.4573,"lon":76.6142,"detection_":8.0,"radiative_":3.7,"sat":"npp","state":"HR","district":"JIND"}],"districts":{"AMBALA":2,"BHIWANI":0,"FARIDABAD":0,"FATEHABAD":2,"GURUGRAM":0,"HISAR":2,"JHAJJAR":0,"JIND":1,"KAITHAL":0,"KARNAL":2,"KURUKSHETRA":3,"MAHENDRAGARH":0,"MEWAT":0,"PALWAL":0,"PANCHKULA":0,"PANIPAT":0,"REWARI":0,"ROHTAK":0,"SIRSA":0,"SONIPAT":0,"YAMUNANAGAR":0,"CHARKHI DADRI":0}}