{"last_update":"3:12 PM, 22 Nov 2025","total":13,"locations":[{"lat":29.15113,"lon":76.45628,"detection_":8.0,"radiative_":0.5,"sat":"npp","state":"HR","district":"JIND"},{"lat":28.81909,"lon":76.85046,"detection_":8.0,"radiative_":1.0,"sat":"npp","state":"HR","district":"ROHTAK"},{"lat":29.01653,"lon":76.25291,"detection_":8.0,"radiative_":2.3,"sat":"npp","state":"HR","district":"ROHTAK"},{"lat":28.54243,"lon":76.69511,"detection_":8.0,"radiative_":0.9,"sat":"npp","state":"HR","district":"JHAJJAR"},{"lat":28.99544,"lon":76.32044,"detection_":8.0,"radiative_":2.6,"sat":"npp","state":"HR","district":"ROHTAK"},{"lat":29.09202,"lon":76.31335,"detection_":8.0,"radiative_":3.0,"sat":"npp","state":"HR","district":"JIND"},{"lat":29.17201,"lon":76.47702,"detection_":8.0,"radiative_":2.1,"sat":"npp","state":"HR","district":"JIND"},{"lat":29.20828,"lon":76.62492,"detection_":8.0,"radiative_":4.2,"sat":"npp","state":"HR","district":"SONIPAT"},{"lat":29.4921,"lon":75.28026,"detection_":8.0,"radiative_":2.1,"sat":"npp","state":"HR","district":"SIRSA"},{"lat":28.98771,"lon":76.13086,"detection_":8.0,"radiative_":3.2,"sat":"npp","state":"HR","district":"BHIWANI"},{"lat":28.84486,"lon":76.64872,"detection_":8.0,"radiative_":4.3,"sat":"npp","state":"HR","district":"ROHTAK"},{"lat":29.08313,"lon":76.5316,"detection_":8.0,"radiative_":1.8,"sat":"npp","state":"HR","district":"ROHTAK"},{"lat":29.48242,"lon":76.60167,"detection_":8.0,"radiative_":2.4,"sat":"npp","state":"HR","district":"KARNAL"}],"districts":{"AMBALA":0,"BHIWANI":1,"FARIDABAD":0,"FATEHABAD":0,"GURUGRAM":0,"HISAR":0,"JHAJJAR":1,"JIND":3,"KAITHAL":0,"KARNAL":1,"KURUKSHETRA":0,"MAHENDRAGARH":0,"MEWAT":0,"PALWAL":0,"PANCHKULA":0,"PANIPAT":0,"REWARI":0,"ROHTAK":5,"SIRSA":1,"SONIPAT":1,"YAMUNANAGAR":0,"CHARKHI DADRI":0}}