{"last_update":"2:23 PM, 18 Nov 2025","total":5,"locations":[{"lat":29.86335,"lon":76.37701,"detection_":8.0,"radiative_":2.8,"sat":"npp","state":"HR","district":"KAITHAL"},{"lat":29.54645,"lon":75.16992,"detection_":8.0,"radiative_":1.1,"sat":"npp","state":"HR","district":"SIRSA"},{"lat":28.81887,"lon":76.84985,"detection_":8.0,"radiative_":0.7,"sat":"npp","state":"HR","district":"ROHTAK"},{"lat":29.01416,"lon":76.73046,"detection_":8.0,"radiative_":3.7,"sat":"npp","state":"HR","district":"SONIPAT"},{"lat":29.19335,"lon":76.30161,"detection_":8.0,"radiative_":7.7,"sat":"npp","state":"HR","district":"JIND"}],"districts":{"AMBALA":0,"BHIWANI":0,"FARIDABAD":0,"FATEHABAD":0,"GURUGRAM":0,"HISAR":0,"JHAJJAR":0,"JIND":1,"KAITHAL":1,"KARNAL":0,"KURUKSHETRA":0,"MAHENDRAGARH":0,"MEWAT":0,"PALWAL":0,"PANCHKULA":0,"PANIPAT":0,"REWARI":0,"ROHTAK":1,"SIRSA":1,"SONIPAT":1,"YAMUNANAGAR":0,"CHARKHI DADRI":0}}