{"last_update":"2:16 PM, 18 Feb 2025","total":6,"locations":[{"lat":28.81841,"lon":76.30963,"detection_":8.0,"radiative_":5.3,"sat":"npp","state":"HR","district":"BHIWANI"},{"lat":28.69853,"lon":76.66608,"detection_":8.0,"radiative_":6.4,"sat":"npp","state":"HR","district":"JHAJJAR"},{"lat":28.16533,"lon":77.46532,"detection_":8.0,"radiative_":3.2,"sat":"npp","state":"HR","district":"PALWAL"},{"lat":29.59561,"lon":76.40559,"detection_":8.0,"radiative_":13.2,"sat":"npp","state":"HR","district":"KAITHAL"},{"lat":28.16418,"lon":77.46706,"detection_":8.0,"radiative_":5.1,"sat":"npp","state":"HR","district":"PALWAL"},{"lat":30.05828,"lon":76.96553,"detection_":8.0,"radiative_":2.0,"sat":"npp","state":"HR","district":"KURUKSHETRA"}],"districts":{"AMBALA":0,"BHIWANI":1,"FARIDABAD":0,"FATEHABAD":0,"GURUGRAM":0,"HISAR":0,"JHAJJAR":1,"JIND":0,"KAITHAL":1,"KARNAL":0,"KURUKSHETRA":1,"MAHENDRAGARH":0,"MEWAT":0,"PALWAL":2,"PANCHKULA":0,"PANIPAT":0,"REWARI":0,"ROHTAK":0,"SIRSA":0,"SONIPAT":0,"YAMUNANAGAR":0,"CHARKHI DADRI":0}}