{"last_update":"3:17 PM, 04 Nov 2025","total":7,"locations":[{"lat":29.60762,"lon":75.90534,"detection_":8.0,"radiative_":6.1,"sat":"npp","state":"HR","district":"FATEHABAD"},{"lat":30.08869,"lon":77.08347,"detection_":8.0,"radiative_":0.7,"sat":"npp","state":"HR","district":"YAMUNANAGAR"},{"lat":29.72371,"lon":75.09227,"detection_":8.0,"radiative_":2.4,"sat":"npp","state":"HR","district":"SIRSA"},{"lat":28.79317,"lon":76.58395,"detection_":8.0,"radiative_":3.8,"sat":"npp","state":"HR","district":"ROHTAK"},{"lat":29.65258,"lon":75.92231,"detection_":8.0,"radiative_":32.5,"sat":"npp","state":"HR","district":"FATEHABAD"},{"lat":29.72397,"lon":75.50543,"detection_":8.0,"radiative_":3.9,"sat":"npp","state":"HR","district":"FATEHABAD"},{"lat":29.76876,"lon":76.22917,"detection_":8.0,"radiative_":4.2,"sat":"npp","state":"HR","district":"KAITHAL"}],"districts":{"AMBALA":0,"BHIWANI":0,"FARIDABAD":0,"FATEHABAD":3,"GURUGRAM":0,"HISAR":0,"JHAJJAR":0,"JIND":0,"KAITHAL":1,"KARNAL":0,"KURUKSHETRA":0,"MAHENDRAGARH":0,"MEWAT":0,"PALWAL":0,"PANCHKULA":0,"PANIPAT":0,"REWARI":0,"ROHTAK":1,"SIRSA":1,"SONIPAT":0,"YAMUNANAGAR":1,"CHARKHI DADRI":0}}