{"last_update":"8:17 PM, 27 Nov 2025","total":10,"locations":[{"lat":28.02016,"lon":77.39291,"detection_":8.0,"radiative_":0.9,"sat":"npp","state":"HR","district":"PALWAL"},{"lat":29.47683,"lon":75.81074,"detection_":8.0,"radiative_":2.8,"sat":"npp","state":"HR","district":"HISAR"},{"lat":29.56568,"lon":75.47753,"detection_":8.0,"radiative_":2.0,"sat":"npp","state":"HR","district":"FATEHABAD"},{"lat":29.70292,"lon":75.67393,"detection_":8.0,"radiative_":4.1,"sat":"npp","state":"HR","district":"FATEHABAD"},{"lat":29.70364,"lon":75.67429,"detection_":8.0,"radiative_":4.0,"sat":"npp","state":"HR","district":"FATEHABAD"},{"lat":28.61267,"lon":76.76622,"detection_":8.0,"radiative_":2.0,"sat":"npp","state":"HR","district":"JHAJJAR"},{"lat":29.59066,"lon":76.86359,"detection_":8.0,"radiative_":3.5,"sat":"npp","state":"HR","district":"KARNAL"},{"lat":29.59004,"lon":76.85963,"detection_":8.0,"radiative_":3.5,"sat":"npp","state":"HR","district":"KARNAL"},{"lat":28.81872,"lon":76.85151,"detection_":8.0,"radiative_":1.1,"sat":"npp","state":"HR","district":"ROHTAK"},{"lat":29.58735,"lon":76.86427,"detection_":8.0,"radiative_":20.5,"sat":"npp","state":"HR","district":"KARNAL"}],"districts":{"AMBALA":0,"BHIWANI":0,"FARIDABAD":0,"FATEHABAD":3,"GURUGRAM":0,"HISAR":1,"JHAJJAR":1,"JIND":0,"KAITHAL":0,"KARNAL":3,"KURUKSHETRA":0,"MAHENDRAGARH":0,"MEWAT":0,"PALWAL":1,"PANCHKULA":0,"PANIPAT":0,"REWARI":0,"ROHTAK":1,"SIRSA":0,"SONIPAT":0,"YAMUNANAGAR":0,"CHARKHI DADRI":0}}