{"last_update":"4:20 PM, 04 Nov 2025","total":13,"locations":[{"lat":29.516,"lon":76.351,"detection_":41.0,"radiative_":14.0,"sat":"mod","state":"HR","district":"JIND"},{"lat":29.623,"lon":75.959,"detection_":62.0,"radiative_":14.8,"sat":"mod","state":"HR","district":"JIND"},{"lat":29.532,"lon":76.234,"detection_":54.0,"radiative_":12.4,"sat":"mod","state":"HR","district":"JIND"},{"lat":29.515,"lon":75.917,"detection_":57.0,"radiative_":11.9,"sat":"mod","state":"HR","district":"HISAR"},{"lat":29.67,"lon":75.687,"detection_":42.0,"radiative_":18.3,"sat":"mod","state":"HR","district":"FATEHABAD"},{"lat":29.663,"lon":75.446,"detection_":62.0,"radiative_":18.4,"sat":"mod","state":"HR","district":"FATEHABAD"},{"lat":29.60762,"lon":75.90534,"detection_":8.0,"radiative_":6.1,"sat":"npp","state":"HR","district":"FATEHABAD"},{"lat":30.08869,"lon":77.08347,"detection_":8.0,"radiative_":0.7,"sat":"npp","state":"HR","district":"YAMUNANAGAR"},{"lat":29.72371,"lon":75.09227,"detection_":8.0,"radiative_":2.4,"sat":"npp","state":"HR","district":"SIRSA"},{"lat":28.79317,"lon":76.58395,"detection_":8.0,"radiative_":3.8,"sat":"npp","state":"HR","district":"ROHTAK"},{"lat":29.65258,"lon":75.92231,"detection_":8.0,"radiative_":32.5,"sat":"npp","state":"HR","district":"FATEHABAD"},{"lat":29.72397,"lon":75.50543,"detection_":8.0,"radiative_":3.9,"sat":"npp","state":"HR","district":"FATEHABAD"},{"lat":29.76876,"lon":76.22917,"detection_":8.0,"radiative_":4.2,"sat":"npp","state":"HR","district":"KAITHAL"}],"districts":{"AMBALA":0,"BHIWANI":0,"FARIDABAD":0,"FATEHABAD":5,"GURUGRAM":0,"HISAR":1,"JHAJJAR":0,"JIND":3,"KAITHAL":1,"KARNAL":0,"KURUKSHETRA":0,"MAHENDRAGARH":0,"MEWAT":0,"PALWAL":0,"PANCHKULA":0,"PANIPAT":0,"REWARI":0,"ROHTAK":1,"SIRSA":1,"SONIPAT":0,"YAMUNANAGAR":1,"CHARKHI DADRI":0}}