{"last_update":"3:11 PM, 23 Feb 2025","total":8,"locations":[{"lat":28.36574,"lon":77.22937,"detection_":8.0,"radiative_":0.4,"sat":"npp","state":"HR","district":"FARIDABAD"},{"lat":30.17478,"lon":76.8186,"detection_":8.0,"radiative_":2.7,"sat":"npp","state":"HR","district":"KURUKSHETRA"},{"lat":29.9463,"lon":77.06899,"detection_":8.0,"radiative_":2.7,"sat":"npp","state":"HR","district":"KARNAL"},{"lat":28.88673,"lon":76.48855,"detection_":8.0,"radiative_":2.2,"sat":"npp","state":"HR","district":"ROHTAK"},{"lat":29.94948,"lon":77.04305,"detection_":8.0,"radiative_":2.2,"sat":"npp","state":"HR","district":"KARNAL"},{"lat":29.25813,"lon":76.93501,"detection_":8.0,"radiative_":1.8,"sat":"npp","state":"HR","district":"PANIPAT"},{"lat":29.00379,"lon":76.63129,"detection_":8.0,"radiative_":5.3,"sat":"npp","state":"HR","district":"ROHTAK"},{"lat":29.56637,"lon":76.91339,"detection_":8.0,"radiative_":5.9,"sat":"npp","state":"HR","district":"KARNAL"}],"districts":{"AMBALA":0,"BHIWANI":0,"FARIDABAD":1,"FATEHABAD":0,"GURUGRAM":0,"HISAR":0,"JHAJJAR":0,"JIND":0,"KAITHAL":0,"KARNAL":3,"KURUKSHETRA":1,"MAHENDRAGARH":0,"MEWAT":0,"PALWAL":0,"PANCHKULA":0,"PANIPAT":1,"REWARI":0,"ROHTAK":2,"SIRSA":0,"SONIPAT":0,"YAMUNANAGAR":0,"CHARKHI DADRI":0}}