{"last_update":"8:52 PM, 05 Feb 2026","total":6,"locations":[{"lat":30.11787,"lon":77.16827,"detection_":8.0,"radiative_":2.8,"sat":"npp","state":"HR","district":"YAMUNANAGAR"},{"lat":30.13259,"lon":76.86021,"detection_":8.0,"radiative_":2.5,"sat":"npp","state":"HR","district":"KURUKSHETRA"},{"lat":28.81281,"lon":76.42802,"detection_":8.0,"radiative_":2.6,"sat":"npp","state":"HR","district":"ROHTAK"},{"lat":29.17499,"lon":76.46889,"detection_":8.0,"radiative_":0.3,"sat":"npp","state":"HR","district":"JIND"},{"lat":29.32224,"lon":76.53619,"detection_":8.0,"radiative_":9.4,"sat":"npp","state":"HR","district":"JIND"},{"lat":28.30312,"lon":77.23328,"detection_":8.0,"radiative_":0.5,"sat":"npp","state":"HR","district":"FARIDABAD"}],"districts":{"AMBALA":0,"BHIWANI":0,"FARIDABAD":1,"FATEHABAD":0,"GURUGRAM":0,"HISAR":0,"JHAJJAR":0,"JIND":2,"KAITHAL":0,"KARNAL":0,"KURUKSHETRA":1,"MAHENDRAGARH":0,"MEWAT":0,"PALWAL":0,"PANCHKULA":0,"PANIPAT":0,"REWARI":0,"ROHTAK":1,"SIRSA":0,"SONIPAT":0,"YAMUNANAGAR":1,"CHARKHI DADRI":0}}