[{"lat":30.8,"lon":75.203,"radiative_":10.5,"sat":"mod","acqdate":"2023-11-09","acqtime":"11:M3:57","sensor":"T","state":"PB","district":"MOGA"},{"lat":30.553,"lon":75.628,"radiative_":6.2,"sat":"mod","acqdate":"2023-11-09","acqtime":"11:M3:57","sensor":"T","state":"PB","district":"BARNALA"},{"lat":31.024,"lon":75.766,"radiative_":12.7,"sat":"mod","acqdate":"2023-11-09","acqtime":"11:M3:57","sensor":"T","state":"PB","district":"JALANDHAR"},{"lat":31.027,"lon":75.76,"radiative_":6.7,"sat":"mod","acqdate":"2023-11-09","acqtime":"11:M3:57","sensor":"T","state":"PB","district":"JALANDHAR"},{"lat":31.025,"lon":75.773,"radiative_":7.8,"sat":"mod","acqdate":"2023-11-09","acqtime":"11:M3:57","sensor":"T","state":"PB","district":"JALANDHAR"},{"lat":30.265,"lon":75.807,"radiative_":10.8,"sat":"mod","acqdate":"2023-11-09","acqtime":"11:M3:57","sensor":"T","state":"PB","district":"SANGRUR"},{"lat":31.434,"lon":75.413,"radiative_":9.6,"sat":"mod","acqdate":"2023-11-09","acqtime":"11:M3:57","sensor":"T","state":"PB","district":"KAPURTHALA"},{"lat":30.449,"lon":75.935,"radiative_":7.6,"sat":"mod","acqdate":"2023-11-09","acqtime":"11:M3:57","sensor":"T","state":"PB","district":"SANGRUR"},{"lat":30.75969,"lon":76.60074,"radiative_":2.2,"sat":"npp","acqdate":"2023-11-09","acqtime":"02:M3:57","sensor":"VF375","state":"PB","district":"SAS NAGAR (MOHALI)"},{"lat":30.96943,"lon":76.3335,"radiative_":0.3,"sat":"npp","acqdate":"2023-11-09","acqtime":"02:M3:57","sensor":"VF375","state":"PB","district":"RUPNAGAR"}]