[{"lat":30.29,"lon":74.105,"radiative_":35.0,"sat":"mod","acqdate":"2023-12-07","acqtime":"10:23:24","sensor":"T","state":"PB","district":"FAZILKA"},{"lat":30.291,"lon":74.094,"radiative_":13.2,"sat":"mod","acqdate":"2023-12-07","acqtime":"14:32:51","sensor":"A","state":"PB","district":"FAZILKA"},{"lat":30.05242,"lon":75.18333,"radiative_":6.3,"sat":"npp","acqdate":"2023-12-07","acqtime":"13:41:23","sensor":"VF375","state":"PB","district":"BATHINDA"},{"lat":30.1494,"lon":75.09978,"radiative_":6.7,"sat":"npp","acqdate":"2023-12-07","acqtime":"13:41:23","sensor":"VF375","state":"PB","district":"BATHINDA"},{"lat":31.18522,"lon":75.23361,"radiative_":2.3,"sat":"npp","acqdate":"2023-12-07","acqtime":"13:41:23","sensor":"VF375","state":"PB","district":"KAPURTHALA"},{"lat":31.18581,"lon":75.23823,"radiative_":2.3,"sat":"npp","acqdate":"2023-12-07","acqtime":"13:41:23","sensor":"VF375","state":"PB","district":"KAPURTHALA"},{"lat":30.28999,"lon":74.10581,"radiative_":19.1,"sat":"npp","acqdate":"2023-12-07","acqtime":"02:31:24","sensor":"VF375","state":"PB","district":"FAZILKA"},{"lat":30.29024,"lon":74.10348,"radiative_":35.2,"sat":"npp","acqdate":"2023-12-07","acqtime":"13:41:23","sensor":"VF375","state":"PB","district":"FAZILKA"},{"lat":31.5118,"lon":75.67185,"radiative_":3.4,"sat":"npp","acqdate":"2023-12-07","acqtime":"13:41:23","sensor":"VF375","state":"PB","district":"JALANDHAR"},{"lat":31.30842,"lon":75.76627,"radiative_":1.9,"sat":"npp","acqdate":"2023-12-07","acqtime":"13:41:23","sensor":"VF375","state":"PB","district":"KAPURTHALA"},{"lat":30.95128,"lon":74.69834,"radiative_":3.5,"sat":"npp","acqdate":"2023-12-07","acqtime":"13:41:23","sensor":"VF375","state":"PB","district":"FIROZPUR"},{"lat":32.0021,"lon":75.26013,"radiative_":5.0,"sat":"npp","acqdate":"2023-12-07","acqtime":"13:41:23","sensor":"VF375","state":"PB","district":"GURDASPUR"},{"lat":30.37417,"lon":75.91158,"radiative_":3.0,"sat":"npp","acqdate":"2023-12-07","acqtime":"13:41:23","sensor":"VF375","state":"PB","district":"SANGRUR"},{"lat":31.21732,"lon":76.10831,"radiative_":2.7,"sat":"npp","acqdate":"2023-12-07","acqtime":"13:41:23","sensor":"VF375","state":"PB","district":"HOSHIARPUR"},{"lat":29.84537,"lon":76.03811,"radiative_":3.2,"sat":"npp","acqdate":"2023-12-07","acqtime":"13:41:23","sensor":"VF375","state":"PB","district":"SANGRUR"},{"lat":30.42448,"lon":74.32022,"radiative_":5.2,"sat":"npp","acqdate":"2023-12-07","acqtime":"13:41:23","sensor":"VF375","state":"PB","district":"MUKTSAR"},{"lat":30.10356,"lon":74.84687,"radiative_":1.8,"sat":"npp","acqdate":"2023-12-07","acqtime":"13:41:23","sensor":"VF375","state":"PB","district":"BATHINDA"}]